City_ID,City,Lat,Lng,Max Temp,Humidity,Cloudiness,Wind Speed,Country,Date
0,hobyo,5.3505,48.5268,29.25,60,28,6.45,SO,1710074274
1,prince george,53.9166,-122.753,0.9,94,100,3.09,CA,1710074199
2,whakatane,-37.9585,176.9854,14.17,93,67,2.84,NZ,1710074275
3,nuuk,64.1835,-51.7216,-11.66,72,40,8.23,GL,1710074275
4,ribeira grande,38.5167,-28.7,17.22,77,40,6.71,PT,1710074276
5,olonkinbyen,70.9221,-8.7187,-0.05,91,22,2.71,SJ,1710074276
6,port-aux-francais,-49.35,70.2167,7.27,82,17,12.0,TF,1710073620
7,gadzhiyevo,69.2551,33.3362,1.99,87,98,9.14,RU,1710074277
8,yellowknife,62.456,-114.3525,-2.55,95,100,5.66,CA,1710074278
9,launceston,-41.45,147.1667,21.3,94,40,1.03,AU,1710074278
10,middlebury (village),44.0153,-73.1673,2.03,95,100,0.0,US,1710074278
11,cockburn town,21.4612,-71.1419,25.32,80,1,7.14,TC,1710074278
12,margaret river,-33.95,115.0667,15.94,74,0,6.53,AU,1710074279
13,iqaluit,63.7506,-68.5145,-30.15,74,20,0.0,CA,1710074279
14,st. john's,47.5649,-52.7093,-0.68,89,100,6.69,CA,1710074173
15,smithers,54.7804,-127.1743,-1.82,100,100,1.03,CA,1710074094
16,yuzhno-kurilsk,44.0306,145.8556,-3.68,59,100,3.23,RU,1710074280
17,brisas de zicatela,15.8369,-97.0419,23.34,81,0,1.65,MX,1710074281
18,ushuaia,-54.8,-68.3,6.81,87,75,9.77,AR,1710074281
19,china,25.7,-99.2333,13.16,62,100,3.0,MX,1710074165
20,puerto leguizamo,-0.1934,-74.7819,23.48,97,100,0.49,CO,1710074282
21,san jose del cabo,23.0589,-109.6977,19.72,77,100,1.23,MX,1710074167
22,keflavik,64.0049,-22.5624,5.95,70,20,5.66,IS,1710074282
23,waitangi,-43.9535,-176.5597,12.68,79,100,4.47,NZ,1710074283
24,wailua homesteads,22.0669,-159.378,20.97,78,20,9.26,US,1710074283
25,bol'shoye boldino,55.0059,45.3142,-8.79,87,100,2.65,RU,1710074283
26,greenacres city,26.6237,-80.1253,25.01,93,100,3.6,US,1710074284
27,avarua,-21.2078,-159.775,27.03,78,75,3.09,CK,1710074284
28,ujae,8.9322,165.7642,26.95,74,100,10.26,MH,1710074284
29,hirara,24.8,125.2833,18.92,68,75,5.66,JP,1710074285
30,bandar lampung,-5.4254,105.258,24.95,90,96,0.5,ID,1710074113
31,college,64.8569,-147.8028,-16.01,57,100,3.09,US,1710074285
32,fort bragg,35.139,-79.006,11.57,73,0,3.6,US,1710074286
33,bredasdorp,-34.5322,20.0403,26.02,42,0,4.43,ZA,1710073859
34,blackmans bay,-43.0167,147.3167,14.29,94,100,0.45,AU,1710074287
35,hermanus,-34.4187,19.2345,25.45,63,0,5.28,ZA,1710074288
36,saipan,15.1355,145.701,27.39,78,0,5.66,MP,1710074288
37,bilibino,68.0546,166.4372,-18.47,99,100,0.17,RU,1710074288
38,grytviken,-54.2811,-36.5092,6.18,97,100,3.07,GS,1710074289
39,labrador city,52.9463,-66.9114,-3.79,77,100,3.09,CA,1710074289
40,adamstown,-25.066,-130.1015,23.68,72,100,2.21,PN,1710074289
41,irtyshsk,53.3333,75.4572,-3.96,91,85,4.2,KZ,1710074290
42,fale old settlement,-9.3852,-171.2468,29.05,79,56,6.52,TK,1710074290
43,utrik,11.2278,169.8474,26.59,78,97,11.22,MH,1710074291
44,nikol'sk,53.7189,46.0712,-6.38,89,100,3.19,RU,1710074291
45,albany,42.6001,-73.9662,2.51,95,100,0.89,US,1710074236
46,thompson,55.7435,-97.8558,-6.91,68,75,1.54,CA,1710073876
47,arar,30.9753,41.0381,21.01,24,0,0.0,SA,1710074292
48,marka,1.7159,44.7717,29.79,62,0,8.41,SO,1710074293
49,uturoa,-16.7333,-151.4333,27.89,79,100,2.87,PF,1710074293
50,puerto natales,-51.7236,-72.4875,8.25,66,75,8.75,CL,1710074293
51,bethel,41.3712,-73.414,6.22,86,100,2.06,US,1710074294
52,margate,51.3813,1.3862,9.94,92,100,1.79,GB,1710074295
53,tamanrasset,22.785,5.5228,26.14,9,6,8.94,DZ,1710074295
54,ancud,-41.8697,-73.8203,12.43,86,100,2.58,CL,1710074295
55,rotenburg an der fulda,50.9833,9.7167,14.93,39,100,5.72,DE,1710074296
56,babu,24.4167,111.5167,14.9,97,100,0.45,CN,1710074297
57,vizinga,61.0749,50.1031,-10.12,84,100,1.76,RU,1710074297
58,neuenrade,51.2833,7.7833,14.27,48,100,5.08,DE,1710074297
59,totness,5.8833,-56.3167,28.6,66,28,4.6,SR,1710074298
60,sferracavallo,42.726,12.0956,16.29,98,100,6.9,IT,1710074298
61,atafu village,-8.5421,-172.5159,29.55,77,100,6.79,TK,1710074298
62,jamestown,42.097,-79.2353,0.77,100,100,6.17,US,1710074011
63,mata-utu,-13.2816,-176.1745,29.3,75,100,4.56,WF,1710074299
64,hamilton,39.1834,-84.5333,1.24,72,8,5.36,US,1710074229
65,tazovsky,67.4667,78.7,-27.27,100,83,2.78,RU,1710074300
66,edinburgh of the seven seas,-37.0676,-12.3116,16.88,73,10,8.59,SH,1710074300
67,praia da vitoria,38.7333,-27.0667,18.14,68,40,5.57,PT,1710074301
68,igarka,67.4667,86.5833,-25.63,99,89,2.9,RU,1710074301
69,alo,7.4178,6.7371,39.63,30,100,1.12,NG,1710074301
70,chestertown,39.209,-76.0666,8.99,86,32,8.7,US,1710074302
71,ponta delgada,37.7333,-25.6667,18.44,82,20,4.12,PT,1710074303
72,dunedin,-45.8742,170.5036,16.63,54,100,1.88,NZ,1710074112
73,lebu,-37.6167,-73.65,14.32,68,100,3.31,CL,1710074304
74,haiku-pauwela,20.9219,-156.3051,22.8,81,20,6.69,US,1710074304
75,waingapu,-9.6567,120.2641,26.31,87,100,4.36,ID,1710074304
76,san andres,12.5847,-81.7006,28.01,83,40,4.63,CO,1710074298
77,anar darah,32.7587,61.654,19.96,45,38,7.06,AF,1710074305
78,sisimiut,66.9395,-53.6735,-18.74,80,8,4.06,GL,1710074306
79,papatowai,-46.5619,169.4708,16.32,70,100,6.84,NZ,1710074306
80,mitchell,43.7094,-98.0298,-0.7,54,0,6.69,US,1710074287
81,khuzdar,27.7384,66.6434,17.36,51,50,2.3,PK,1710074307
82,palmer,42.1584,-72.3287,6.23,86,100,4.63,US,1710074308
83,port blair,11.6667,92.75,28.02,69,40,2.57,IN,1710074308
84,khamharia,20.9833,82.2667,29.47,20,0,3.38,IN,1710074308
85,morant bay,17.8815,-76.4093,25.79,79,18,4.33,JM,1710074309
86,kurkino,53.4257,38.6582,-5.33,87,100,4.13,RU,1710074310
87,puerto ayora,-0.7393,-90.3518,24.19,100,9,1.34,EC,1710074310
88,namtsy,62.7161,129.6658,-23.13,100,100,1.11,RU,1710074310
89,cabedelo,-6.9811,-34.8339,31.37,70,44,5.69,BR,1710074310
90,jabor,5.921,169.6434,28.05,83,39,11.5,MH,1710074311
91,udachny,66.4167,112.4,-22.09,96,96,2.2,RU,1710074312
92,leninskoye,41.7589,69.3864,9.02,83,100,1.83,KZ,1710074312
93,weno,7.4515,151.8468,28.97,79,100,4.12,FM,1710074313
94,calbuco,-41.768,-73.1273,12.56,81,100,4.27,CL,1710074313
95,xinji,37.9028,115.2036,12.25,46,100,2.93,CN,1710074314
96,port alfred,-33.5906,26.891,26.21,80,24,2.68,ZA,1710074314
97,mutoko,-17.397,32.2268,26.37,47,95,3.34,ZW,1710074315
98,mooloolaba,-26.6833,153.1167,25.59,85,27,0.89,AU,1710074316
99,minas de marcona,-15.2119,-75.1103,19.37,75,37,3.99,PE,1710074317
100,solleftea,63.1667,17.2667,-1.08,75,100,1.99,SE,1710074317
101,georgetown,5.4112,100.3354,30.97,64,20,2.57,MY,1710074318
102,ugoofaaru,5.6667,73.0,28.55,71,29,4.3,MV,1710074318
103,vila velha,-20.3297,-40.2925,29.97,74,40,5.14,BR,1710074319
104,curup,-3.4667,102.5333,20.91,99,100,0.59,ID,1710074319
105,novomykolayivka,47.9781,35.9102,8.39,41,99,5.37,UA,1710074319
106,nova xavantina,-14.6667,-52.35,27.19,81,100,1.5,BR,1710074320
107,lihue,21.9789,-159.3672,21.31,79,20,9.26,US,1710073718
108,el jadid,33.2549,-8.506,17.33,60,99,5.01,MA,1710074321
109,naxos,37.1056,25.3764,17.95,65,0,2.68,GR,1710074322
110,morrilton,35.1509,-92.744,4.73,74,0,1.32,US,1710074323
111,aripuana,-9.1667,-60.6333,27.68,79,85,1.19,BR,1710074323
112,whitehorse,60.7161,-135.0538,-7.57,73,0,2.06,CA,1710074323
113,bassar,9.25,0.7833,42.43,16,81,1.24,TG,1710074324
114,tsiombe,-25.3,45.4833,31.24,60,73,4.48,MG,1710074324
115,hithadhoo,-0.6,73.0833,28.74,71,37,4.73,MV,1710074325
116,dudinka,69.4058,86.1778,-20.74,98,96,3.13,RU,1710074325
117,al fuwayliq,26.4432,43.2534,28.88,11,100,8.05,SA,1710074325
118,guatire,10.4762,-66.5427,29.27,76,100,1.7,VE,1710074325
119,kavaratti,10.5669,72.642,28.59,66,0,3.19,IN,1710074326
120,ulsteinvik,62.3432,5.8487,6.5,52,0,0.93,NO,1710074326
121,ambodifotatra,-16.9833,49.85,28.03,68,100,4.49,MG,1710074327
122,east london,-33.0153,27.9116,25.52,78,0,4.63,ZA,1710074328
123,khanu woralaksaburi,16.0617,99.8606,36.64,36,49,4.22,TH,1710074328
124,balabac,7.9868,117.0645,26.76,77,100,5.46,PH,1710074329
125,chonchi,-42.6128,-73.8092,13.4,82,83,1.86,CL,1710074329
126,bubaque,11.2833,-15.8333,26.95,47,39,3.34,GW,1710074330
127,karatuzskoye,53.6072,92.8667,0.21,85,100,3.13,RU,1710074330
128,port mathurin,-19.6833,63.4167,26.98,75,4,8.45,MU,1710074331
129,vilyuchinsk,52.9306,158.4028,-1.71,92,100,3.51,RU,1710074331
130,klyuchi,52.2667,79.1667,0.15,80,100,6.6,RU,1710074332
131,kilindoni,-7.9139,39.6668,30.32,69,89,5.56,TZ,1710074332
132,kayangel,8.0823,134.7173,27.52,74,100,9.0,PW,1710074332
133,longyearbyen,78.2186,15.6401,-8.09,86,75,1.54,SJ,1710074333
134,kenai,60.5544,-151.2583,-6.03,81,100,1.54,US,1710074333
135,akrehamn,59.2667,5.1833,7.14,33,0,4.12,NO,1710074333
136,kotido,2.9806,34.1331,30.81,31,97,6.15,UG,1710074334
137,la passe,45.5549,-0.8967,12.13,78,90,5.71,FR,1710074334
138,kruisfontein,-34.0033,24.7314,26.05,50,0,5.17,ZA,1710074335
139,shingu,33.7333,135.9833,2.92,64,0,3.07,JP,1710074336
140,gudauta,43.1055,40.6207,8.14,74,79,2.94,GE,1710074337
141,conception bay south,47.4999,-52.9981,-0.81,90,15,4.74,CA,1710074153
142,terracina,41.2863,13.2217,16.71,77,100,6.71,IT,1710074338
143,ar rutbah,33.0381,40.2848,17.83,23,0,2.5,IQ,1710074338
144,cruzeiro do sul,-29.5128,-51.9853,25.84,71,86,0.46,BR,1710074339
145,warmbad,-28.45,18.7333,39.52,8,0,3.06,NA,1710074339
146,punta arenas,-53.15,-70.9167,8.06,81,75,7.2,CL,1710074123
147,kolonia town,6.964,158.206,27.5,76,99,10.92,FM,1710074340
148,kingston,17.997,-76.7936,25.53,83,20,4.12,JM,1710073974
149,sechura,-5.5569,-80.8222,25.23,70,78,4.03,PE,1710074341
150,kurumkan,54.3,110.3,-11.04,87,20,2.68,RU,1710074343
151,lompoc,34.6391,-120.4579,10.01,87,100,2.06,US,1710074344
152,martuk,50.7475,56.5056,-4.27,93,100,4.73,KZ,1710074346
153,san antonio de pale,-1.4014,5.6325,28.77,72,100,0.75,GQ,1710074347
154,san julian,21.0167,-102.1667,10.0,41,0,2.28,MX,1710074347
155,afaahiti,-17.75,-149.2833,24.93,85,100,5.51,PF,1710074348
156,salalah,17.0151,54.0924,30.05,70,40,7.2,OM,1710074348
157,solwezi,-12.1688,26.3894,28.05,48,100,1.34,ZM,1710074349
158,pestovo,58.5938,35.8024,-1.71,86,100,3.42,RU,1710074351
159,sao domingos do maranhao,-5.5758,-44.3853,28.03,85,10,0.78,BR,1710074352
160,miri,4.4148,114.0089,27.08,89,40,3.6,MY,1710074353
161,alice springs,-23.7,133.8833,29.75,55,75,4.12,AU,1710074354
162,ntcheu,-14.8203,34.6359,25.16,70,81,1.98,MW,1710074354
163,tofol,5.3248,163.0078,27.84,78,100,9.62,FM,1710074355
164,ad dilam,23.9915,47.1627,30.23,14,3,3.96,SA,1710074355
165,diego de almagro,-26.3667,-70.05,20.18,45,93,0.48,CL,1710074355
166,qaqortoq,60.7167,-46.0333,-8.49,86,5,2.48,GL,1710073860
167,tura,25.5198,90.2201,18.76,30,0,0.59,IN,1710074356
168,preston,53.7667,-2.7167,8.92,89,100,7.89,GB,1710074357
169,ust-nera,64.5667,143.2,-23.63,100,100,0.29,RU,1710074357
170,chaumont,48.1167,5.1333,9.65,85,100,2.81,FR,1710074358
171,scarborough,54.2797,-0.4044,7.03,91,100,4.92,GB,1710074358
172,cooper's town,26.8667,-77.5167,24.59,84,30,8.38,BS,1710074359
173,fort mcmurray,56.7268,-111.381,0.77,74,20,2.57,CA,1710074158
174,kill devil hills,36.0307,-75.676,13.0,90,40,4.12,US,1710074360
175,asekeyevo,53.5742,52.7972,-4.41,88,100,1.93,RU,1710074361
176,nemuro,43.3236,145.575,-2.32,82,90,5.33,JP,1710074361
177,mambajao,9.2504,124.7156,26.14,85,7,7.94,PH,1710074362
178,buka,40.8108,69.1986,11.07,78,86,1.2,UZ,1710074363
179,huetamo de nunez,18.5833,-100.8833,19.5,70,0,0.7,MX,1710074365
180,benguela,-12.5763,13.4055,29.72,69,100,3.74,AO,1710074365
181,peno,56.9262,32.7426,-1.48,60,100,2.98,RU,1710074366
182,new norfolk,-42.7826,147.0587,14.95,98,100,0.14,AU,1710074366
183,san jose,37.3394,-121.895,12.12,83,100,1.54,US,1710073796
184,west island,-12.1568,96.8225,27.99,94,100,12.86,CC,1710074368
185,malibu,34.005,-118.8101,12.54,71,30,1.08,US,1710074241
186,karera,25.4667,78.15,27.43,19,88,1.85,IN,1710074369
187,mount gambier,-37.8333,140.7667,19.91,69,100,2.58,AU,1710074369
188,ushirombo,-3.4919,31.9639,26.31,71,51,2.18,TZ,1710074369
189,youhao,47.8667,128.8333,-6.67,97,100,0.85,CN,1710074370
190,nova olinda do norte,-3.8881,-59.0942,24.88,96,100,1.0,BR,1710074370
191,ilulissat,69.2167,-51.1,-17.99,85,20,4.63,GL,1710074371
192,south hedland,-20.4089,118.5983,29.96,79,100,3.6,AU,1710074371
193,stanley,54.868,-1.6985,5.95,94,100,6.17,GB,1710074371
194,santa catalina,9.3337,122.8637,27.99,76,27,4.64,PH,1710074372
195,pemba,-12.974,40.5178,32.39,74,75,6.17,MZ,1710074373
196,crane,31.3974,-102.3501,6.62,52,95,2.47,US,1710074373
197,hawaiian paradise park,19.5933,-154.9731,21.04,82,75,0.89,US,1710074374
198,isafjordur,66.0755,-23.124,-0.98,86,0,0.0,IS,1710074374
199,shilka,51.85,116.0333,-12.66,91,32,1.01,RU,1710074374
200,blenheim,-41.516,173.9528,12.6,73,100,4.04,NZ,1710074143
201,carnarvon,-24.8667,113.6333,25.31,70,0,10.92,AU,1710074375
202,geraldton,-28.7667,114.6,22.23,73,0,8.75,AU,1710074376
203,kailua-kona,19.6406,-155.9956,23.98,95,100,5.66,US,1710074377
204,norilsk,69.3535,88.2027,-20.88,100,100,1.36,RU,1710074377
205,flying fish cove,-10.4217,105.6791,25.82,94,100,4.12,CX,1710074377
206,kodiak,57.79,-152.4072,-3.27,68,100,3.6,US,1710074378
207,bardai,11.65,7.2333,38.51,8,92,4.73,NG,1710074378
208,annau,37.8876,58.516,16.72,51,75,3.09,TM,1710074379
209,pont rouge,48.8833,-72.0825,0.16,96,100,5.06,CA,1710074380
210,waddan,29.1614,16.139,28.33,12,0,2.97,LY,1710074381
211,matli,25.0431,68.6557,25.87,27,100,4.13,PK,1710074381
212,maracacume,-2.0428,-45.9592,30.03,70,100,1.18,BR,1710074381
213,revda,56.801,59.9303,-5.15,88,100,2.39,RU,1710074382
214,remire-montjoly,4.9167,-52.2667,29.02,74,20,4.63,GF,1710074382
215,cordoba,-31.4135,-64.1811,24.03,94,100,2.06,AR,1710074306
216,luderitz,-26.6481,15.1594,24.35,60,10,5.31,NA,1710074383
217,revelstoke,50.9832,-118.2023,1.01,93,100,3.6,CA,1710074383
218,kapuskasing,49.4169,-82.4331,-9.95,85,100,7.2,CA,1710074383
219,pindushi,62.9152,34.58,0.21,88,99,3.03,RU,1710074384
220,kaoma,-14.7833,24.8,29.91,46,100,1.91,ZM,1710074385
221,siwa oasis,29.2041,25.5195,23.32,21,0,3.27,EG,1710074385
222,beira,-19.8436,34.8389,32.05,74,40,4.12,MZ,1710074385
223,coishco,-9.0231,-78.6156,22.43,84,92,2.86,PE,1710074386
224,truro,50.2653,-5.0544,10.42,81,40,3.09,GB,1710074386
225,zuni pueblo,35.0725,-108.8506,-8.65,55,0,1.81,US,1710074387
226,selfoss,63.9331,-20.9971,4.47,62,20,3.25,IS,1710074388
227,nay pyi taw,19.745,96.1297,28.12,17,5,0.6,MM,1710074389
228,auki,-8.7676,160.7034,26.8,88,90,1.6,SB,1710074389
229,bodo,67.28,14.405,4.02,48,0,8.75,NO,1710074390
230,nouadhibou,20.931,-17.0347,20.06,65,100,4.24,MR,1710074392
231,tiksi,71.6872,128.8694,-31.74,99,68,1.77,RU,1710074393
232,egilsstadir,65.2653,-14.3948,1.95,87,75,3.09,IS,1710074393
233,kikwit,-5.041,18.8162,32.93,51,87,1.02,CD,1710074393
234,badger,64.8,-147.5333,-16.05,67,100,3.09,US,1710074394
235,homer,59.6425,-151.5483,-2.06,72,100,3.6,US,1710074146
236,hohhot,40.8106,111.6522,7.16,24,0,4.0,CN,1710074329
237,quelimane,-17.8786,36.8883,28.97,89,75,4.55,MZ,1710074396
238,verkhnevilyuysk,63.4453,120.3167,-22.08,100,95,1.61,RU,1710074396
239,arcos de la frontera,36.7508,-5.8106,16.35,73,82,7.78,ES,1710074397
240,caska,41.6506,21.6622,14.29,53,100,2.83,MK,1710074397
241,khovd,48.0056,91.6419,-3.44,54,100,1.15,MN,1710074122
242,chagoda,59.164,35.3285,-2.42,87,100,2.91,RU,1710074398
243,luanda,-8.8368,13.2343,30.0,79,20,3.6,AO,1710074399
244,bandarbeyla,9.4942,50.8122,28.15,65,0,4.84,SO,1710074399
245,siguiri,11.6667,-9.5,40.3,9,54,2.81,GN,1710074399
246,cromer,52.9312,1.2989,8.37,93,100,4.02,GB,1710074399
247,holly springs,35.6513,-78.8336,10.17,75,2,2.24,US,1710074383
248,patiya,22.2931,91.9762,27.97,36,0,6.17,BD,1710074400
249,anadyr,64.75,177.4833,-24.72,83,0,3.0,RU,1710074401
250,eyl,7.9803,49.8164,29.17,59,7,6.47,SO,1710074401
251,russkaya polyana,49.417,31.9201,8.12,45,48,3.93,UA,1710074402
252,tionk essil,12.7856,-16.5217,30.98,14,5,3.61,SN,1710074403
253,prince rupert,54.3161,-130.3201,4.83,100,100,4.12,CA,1710074403
254,teknaf,20.8624,92.3058,23.22,51,0,6.09,BD,1710074403
255,nar'yan-mar,67.6713,53.087,-18.27,96,28,1.34,RU,1710074404
256,tahoua,14.8888,5.2692,40.99,9,0,8.23,NE,1710074404
257,greenville,35.6127,-77.3663,12.09,81,0,3.09,US,1710073575
258,permet,40.2336,20.3517,16.66,58,90,3.14,AL,1710074405
259,port lincoln,-34.7333,135.8667,23.34,65,100,2.77,AU,1710074406
260,goulburn,-34.75,149.7167,14.22,91,6,2.08,AU,1710074406
261,orchard homes,46.8633,-114.0484,2.08,70,40,2.06,US,1710074407
262,bonthe,7.5264,-12.505,31.88,63,66,5.25,SL,1710074407
263,port elizabeth,-33.918,25.5701,27.28,70,20,5.14,ZA,1710074408
264,migori,-1.0634,34.4731,29.83,37,16,3.1,KE,1710074408
265,soderhamn,61.3037,17.0592,-0.58,78,98,2.54,SE,1710074409
266,fada n'gourma,12.0622,0.3578,40.71,7,100,4.23,BF,1710074410
267,kavieng,-2.5744,150.7967,28.39,78,74,3.37,PG,1710074410
268,thal,35.4791,72.2439,4.69,76,100,1.0,PK,1710074410
269,hadibu,12.65,54.0333,27.38,73,26,1.48,YE,1710074411
270,coahuayana de hidalgo,18.7,-103.6583,18.37,57,0,1.78,MX,1710074412
271,shimoda,34.6667,138.95,6.17,57,1,1.7,JP,1710074413
272,amahai,-3.3333,128.9167,25.59,89,100,3.34,ID,1710074414
273,contamana,-7.3333,-75.0167,26.38,80,100,0.92,PE,1710074414
274,ola,59.5833,151.2833,-7.14,89,100,5.43,RU,1710074415
275,altai,46.3722,96.2583,-6.82,41,98,1.67,MN,1710074415
276,mount isa,-20.7333,139.5,27.87,54,100,2.57,AU,1710074416
277,westport,41.1415,-73.3579,6.99,87,100,3.6,US,1710074170
278,enewetak,11.3474,162.3373,26.37,78,100,9.92,MH,1710074416
279,rongelap,11.1635,166.8941,26.8,74,80,10.1,MH,1710074417
280,alpena,45.0617,-83.4327,-3.82,95,100,5.14,US,1710074417
281,uusikaupunki,60.8004,21.4084,-0.18,71,81,0.81,FI,1710074417
282,colonia,50.9333,6.95,17.75,45,0,4.12,DE,1710074410
283,nova sintra,14.8667,-24.7167,19.93,72,10,7.85,CV,1710074418
284,bom jesus,-9.0744,-44.3586,32.5,46,31,1.51,BR,1710074419
285,codrington,-38.2667,141.9667,19.6,76,99,1.21,AU,1710074419
286,whitecourt,54.1502,-115.6855,0.58,55,40,1.54,CA,1710074420
287,talnakh,69.4865,88.3972,-21.0,100,100,0.49,RU,1710074420
288,essaouira,31.5125,-9.77,17.72,82,75,1.54,MA,1710074421
289,lazaro cardenas,17.9583,-102.2,20.73,87,8,1.89,MX,1710074421
290,puerto cabezas,14.0351,-83.3888,24.98,73,75,2.06,NI,1710074422
291,taltal,-25.4,-70.4833,20.49,72,93,1.14,CL,1710074422
292,daet,14.1,122.9167,24.57,85,62,6.64,PH,1710074423
293,muisne,0.6,-80.0333,25.96,89,84,2.04,EC,1710074424
294,mount carmel,38.4109,-87.7614,1.01,70,5,4.59,US,1710074424
295,kroonstad,-27.6504,27.2349,36.73,14,53,1.87,ZA,1710074424
296,macau,22.2006,113.5461,15.89,94,40,3.6,MO,1710074425
297,dhing,26.4667,92.4667,26.06,21,2,0.52,IN,1710074426
298,okha,53.5739,142.9478,-19.93,100,95,2.08,RU,1710074275
299,sur,22.5667,59.5289,23.37,81,77,2.99,OM,1710074427
300,alofi,-19.0595,-169.9187,26.94,89,20,2.06,NU,1710074427
301,constantia,44.1833,28.65,14.38,68,3,7.6,RO,1710074427
302,hammerfest,70.6634,23.6821,3.25,100,75,5.66,NO,1710074428
303,hasaki,35.7333,140.8333,4.22,51,88,4.81,JP,1710074428
304,san martin,-33.081,-68.4681,22.3,51,46,1.43,AR,1710074428
305,barra de santo antonio,-9.4047,-35.5072,30.6,58,47,3.79,BR,1710074429
306,san sebastian de la gomera,28.0916,-17.1133,21.2,56,20,4.63,ES,1710074429
307,ma'rib,15.4591,45.3253,31.12,22,11,3.69,YE,1710074430
308,saint-pierre,-21.3393,55.4781,28.82,74,2,1.03,RE,1710074430
309,huarmey,-10.0681,-78.1522,23.64,79,85,3.26,PE,1710074430
310,vazante,-17.9869,-46.9078,27.64,65,100,1.89,BR,1710074431
311,bamboo flat,11.7,92.7167,28.05,69,40,2.57,IN,1710074431
312,cururupu,-1.8283,-44.8683,30.74,66,100,1.2,BR,1710074432
313,metlili chaamba,32.2667,3.6333,21.55,31,0,3.24,DZ,1710074432
314,sambava,-14.2667,50.1667,29.02,70,100,4.98,MG,1710074433
315,ta`u,-14.2336,-169.5144,28.2,81,97,4.7,AS,1710074433
316,port saint john's,-31.6229,29.5448,28.37,69,3,3.38,ZA,1710074433
317,brookings,44.3114,-96.7984,-3.23,57,0,5.14,US,1710074434
318,thunder bay,48.4001,-89.3168,-8.01,67,0,2.57,CA,1710074333
319,angicos,-5.6656,-36.6011,32.56,49,43,2.31,BR,1710074435
320,ayang-ni,38.2431,125.78,2.46,80,98,2.05,KP,1710074435
321,strezhevoy,60.7333,77.5889,-7.24,89,100,1.79,RU,1710074436
322,glace bay,46.1969,-59.957,-1.06,85,100,4.12,CA,1710074437
323,arraial do cabo,-22.9661,-42.0278,27.98,83,75,1.54,BR,1710074437
324,anloga,5.7947,0.8973,30.15,68,92,4.06,GH,1710074438
325,villaverde del rio,37.6008,-5.8951,17.62,57,63,7.02,ES,1710074438
326,banda aceh,5.5577,95.3222,27.12,81,63,4.19,ID,1710074439
327,jimma,7.6667,36.8333,22.87,66,90,0.56,ET,1710074439
328,polyarnyy,69.1989,33.4478,2.18,86,97,8.8,RU,1710074439
329,sinabang,2.4803,96.3801,28.08,73,33,1.87,ID,1710074440
330,dryden,49.7833,-92.7503,-9.84,73,20,1.54,CA,1710074441
331,trinidad,-14.8333,-64.9,26.99,89,75,0.0,BO,1710074442
332,acajutla,13.5928,-89.8275,25.61,70,0,1.63,SV,1710074443
333,newman,37.3138,-121.0208,9.05,91,100,1.4,US,1710074444
334,invercargill,-46.4,168.35,16.68,75,100,4.92,NZ,1710074444
335,quezon,7.7303,125.0989,21.97,83,14,2.27,PH,1710074446
336,pak phanang,8.3511,100.202,29.01,74,76,4.53,TH,1710074447
337,pasuquin,18.3328,120.6177,26.97,57,40,2.06,PH,1710074447
338,manokwari,-0.8667,134.0833,26.25,79,100,4.15,ID,1710074449
339,borova,50.1763,30.1043,8.52,46,17,3.21,UA,1710074451
340,chauk,20.8833,94.8167,29.7,14,4,1.35,MM,1710074451
341,wenling,28.3669,121.36,8.94,81,33,0.04,CN,1710074452
342,sanchursk,56.9413,47.2499,-9.34,85,100,1.98,RU,1710074453
343,prairie du chien,43.0517,-91.1412,-4.99,74,0,0.0,US,1710074454
344,santa elena de uairen,4.6167,-61.1333,25.71,59,100,1.75,VE,1710074454
345,goba,7.0167,39.9833,17.04,61,99,2.81,ET,1710074455
346,sungai penuh,-2.0833,101.3833,19.16,98,100,0.27,ID,1710074455
347,benghazi,32.1167,20.0667,20.72,44,0,3.52,LY,1710074456
348,samana,19.2056,-69.3369,23.98,100,20,0.0,DO,1710074456
349,tual,-5.6667,132.75,27.87,84,100,8.63,ID,1710074457
350,orapa,-21.2833,25.3667,37.08,19,44,4.0,BW,1710074457
351,as sulayyil,20.4607,45.5779,32.14,12,0,2.42,SA,1710074458
352,mawlaik,23.6333,94.4167,23.24,23,0,0.06,MM,1710074458
353,vila franca do campo,37.7167,-25.4333,18.27,99,76,3.38,PT,1710074383
354,sadovoye,47.7764,44.5089,1.48,76,100,1.76,RU,1710074460
355,kapa'a,22.0752,-159.319,21.72,78,20,9.26,US,1710074460
356,piti village,13.4626,144.6933,27.03,87,40,6.69,GU,1710074461
357,caleta de carquin,-11.0925,-77.6267,23.31,79,85,3.72,PE,1710074461
358,bucerias,20.75,-105.3333,18.32,100,0,2.57,MX,1710074317
359,pacific grove,36.6177,-121.9166,11.48,87,100,1.34,US,1710074463
360,vadso,70.0744,29.7487,3.49,87,100,6.17,NO,1710074464
361,vernon,50.2581,-119.2691,4.02,75,100,3.09,CA,1710074464
362,changuinola,9.4333,-82.5167,25.53,73,49,0.89,PA,1710074464
363,puerto maldonado,-12.6,-69.1833,25.22,94,75,1.02,PE,1710074465
364,sao vicente,-23.9631,-46.3919,30.15,67,75,2.24,BR,1710074465
365,sztum,53.9208,19.0307,10.74,49,12,7.52,PL,1710074465
366,angaur state,6.906,134.13,27.55,76,100,8.68,PW,1710074466
367,carboneras,37.0015,-1.9213,16.28,44,3,6.65,ES,1710074466
368,tambura,5.6,27.4667,40.69,14,3,2.23,SS,1710074466
369,srivardhan,18.0333,73.0167,27.08,53,5,6.45,IN,1710074467
370,douentza,14.9951,-2.9517,40.11,6,3,4.03,ML,1710074467
371,xique xique,-10.8217,-42.7311,29.87,52,25,1.62,BR,1710074277
372,salvacion,7.9833,126.1333,21.86,92,5,0.79,PH,1710074468
373,cill airne,52.05,-9.5167,7.03,87,100,3.09,IE,1710074468
374,petropavlovsk-kamchatsky,53.0452,158.6483,-2.53,77,75,5.36,RU,1710074468
375,heroica caborca,30.7167,-112.15,12.97,39,15,0.61,MX,1710074469
376,la ronge,55.1001,-105.2842,-2.86,80,75,4.63,CA,1710074469
377,karakecili,39.5942,33.3778,9.2,41,82,0.33,TR,1710074469
378,mont-dore,-22.2833,166.5833,26.11,99,100,7.18,NC,1710074469
379,manicore,-5.8092,-61.3003,28.81,74,89,1.76,BR,1710074470
380,inhambane,-23.865,35.3833,33.99,59,40,7.2,MZ,1710074470
381,verkh-chebula,56.0308,87.6218,1.77,94,100,8.84,RU,1710074470
382,sirte,31.2089,16.5887,25.25,31,0,3.67,LY,1710074471
383,rikaze,29.25,88.8833,7.65,8,0,1.03,CN,1710074471
384,zag,46.9441,99.165,-21.54,80,0,2.37,MN,1710074472
385,serpa,37.9458,-7.5975,12.98,67,84,8.25,PT,1710074472
386,lautoka,-17.6167,177.4667,24.92,94,75,1.03,FJ,1710074382
387,kalabo,-14.97,22.6814,33.37,34,100,3.81,ZM,1710074473
388,tevriz,57.509,72.4042,-6.04,96,100,1.05,RU,1710074473
389,moundou,8.5667,16.0833,42.13,21,20,0.0,TD,1710074473
390,edson,53.5835,-116.4356,-3.92,74,75,1.03,CA,1710074474
391,balqash,46.8481,74.995,1.33,93,75,4.0,KZ,1710074474
392,zaysan,47.4667,84.8667,0.35,93,100,1.61,KZ,1710074474
393,castillos,-34.1667,-53.8333,23.5,45,0,3.38,UY,1710074475
394,nuku'alofa,-21.1333,-175.2,25.19,100,100,0.51,TO,1710074475
395,nyurba,63.2842,118.3319,-24.58,100,37,1.69,RU,1710074476
396,taoudenni,22.6783,-3.9836,30.16,15,0,3.99,ML,1710074476
397,paradip garh,20.3167,86.6167,25.92,64,0,4.98,IN,1710074476
398,zakynthos,37.7914,20.8953,18.68,72,20,4.63,GR,1710074476
399,dassa-zoume,7.75,2.1833,39.98,26,71,2.02,BJ,1710074477
400,mount pearl,47.5166,-52.7813,-1.14,89,100,6.69,CA,1710074477
401,mitu,1.1983,-70.1733,25.28,91,98,1.08,CO,1710074477
402,peace river,56.2501,-117.286,-2.83,93,20,2.57,CA,1710074478
403,kalmunai,7.4167,81.8167,26.3,74,6,3.26,LK,1710074478
404,aykhal,66.0,111.5,-19.5,98,100,2.86,RU,1710074479
405,mana,5.6592,-53.7767,28.6,68,38,4.02,GF,1710074479
406,magole,-6.3667,37.3667,28.44,77,67,1.47,TZ,1710074480
407,howrah,22.5892,88.3103,26.0,41,0,3.6,IN,1710074481
408,kununurra,-15.7667,128.7333,26.99,89,100,1.03,AU,1710074400
409,portland,45.5234,-122.6762,9.99,73,100,9.26,US,1710073762
410,kapren,25.4167,76.0667,27.87,21,4,2.04,IN,1710074483
411,ma'an,26.9775,110.7211,13.27,83,100,1.15,CN,1710074484
412,pyshma,56.9523,63.2513,-5.75,90,95,0.85,RU,1710074485
413,as suwayq,23.8494,57.4386,23.81,74,13,2.57,OM,1710074485
414,pakur,24.6333,87.85,25.16,16,0,2.49,IN,1710074486
415,borogontsy,62.6683,131.1683,-29.09,100,99,0.33,RU,1710074486
416,gaspe,48.8334,-64.4819,-1.05,93,75,6.17,CA,1710074487
417,susuman,62.7833,148.1667,-27.23,99,85,1.34,RU,1710074487
418,aasiaat,68.7098,-52.8699,-26.04,100,100,1.71,GL,1710074488
419,palapag,12.5458,125.1147,25.47,79,100,3.85,PH,1710074488
420,korla,41.7597,86.1469,9.13,38,96,0.75,CN,1710074489
421,nicoya,10.1483,-85.452,25.99,72,7,1.14,CR,1710074489
422,ataq,14.5377,46.8319,28.01,41,99,5.0,YE,1710074490
423,porto novo,6.4965,2.6036,33.7,52,100,4.51,BJ,1710074490
424,lexington park,38.2668,-76.4538,8.82,81,75,5.66,US,1710074491
425,luwuk,-0.9516,122.7875,26.37,81,100,2.1,ID,1710074491
426,xilin hot,43.9667,116.0333,-7.97,91,100,1.55,CN,1710074492
427,caldas novas,-17.7417,-48.625,25.53,78,100,1.68,BR,1710074493
428,el calafate,-50.3408,-72.2768,6.72,77,83,4.75,AR,1710074493
429,pangody,65.85,74.4859,-27.89,100,19,1.97,RU,1710074494
430,murghob,38.1702,73.9667,-7.64,62,98,2.26,TJ,1710074494
431,thinadhoo,0.5333,72.9333,28.87,72,17,4.6,MV,1710074495
432,rehoboth,-23.3167,17.0833,36.48,16,75,3.69,NA,1710074495
433,urengoy,65.9667,78.3667,-28.58,100,12,2.53,RU,1710074495
434,vaasa,63.096,21.6158,1.27,73,0,4.92,FI,1710074496
435,douglas,41.3,-96.167,-0.4,68,0,1.54,US,1710074496
436,galle,6.0367,80.217,26.95,71,8,1.49,LK,1710074497
437,klishkivtsi,48.4316,26.2623,10.95,39,77,3.31,UA,1710074497
438,batie,9.8833,-2.9167,41.37,20,100,1.65,BF,1710074497
439,itoman,26.1247,127.6694,17.43,59,20,3.6,JP,1710074498
440,khost,33.3395,69.9204,16.27,34,100,1.34,AF,1710074498
441,nili,33.7218,66.1302,4.49,82,100,1.41,AF,1710074499
442,kota kinabalu,5.9749,116.0724,27.99,83,20,1.03,MY,1710074441
443,yorkton,51.2167,-102.4677,-7.09,86,20,6.69,CA,1710074500
444,san luis de la loma,17.2706,-100.8939,21.09,79,0,1.97,MX,1710074500
445,gulf shores,30.246,-87.7008,11.11,77,0,4.12,US,1710074501
446,garoowe,8.4054,48.4845,35.09,21,0,6.26,SO,1710074501
447,cafayate,-26.073,-65.9761,23.73,71,96,2.92,AR,1710074502
448,atchison,39.563,-95.1216,3.33,56,0,2.25,US,1710074502
449,colesberg,-30.72,25.0972,34.11,8,0,2.81,ZA,1710074503
450,la'ie,21.6477,-157.9253,22.28,73,100,4.92,US,1710074503
451,bikenibeu village,1.3673,173.1241,27.98,94,75,3.6,KI,1710074504
452,malabar,-33.9667,151.25,24.84,76,0,5.14,AU,1710074504
453,fray luis beltran,-39.3167,-65.7667,23.84,30,7,4.95,AR,1710074504
454,chernyshevskiy,63.0128,112.4714,-14.03,97,100,1.63,RU,1710074505
455,teodoro sampaio,-22.5325,-52.1675,30.2,59,94,2.51,BR,1710074505
456,panaba,21.2833,-88.2667,24.51,88,70,0.56,MX,1710074506
457,fisterra,42.9049,-9.2629,13.19,79,19,10.83,ES,1710074507
458,senanga,-16.1167,23.2667,34.01,30,74,4.17,ZM,1710074507
459,nagqu,31.5,92.0,-3.88,11,2,2.1,CN,1710074508
460,gero,-8.7039,121.1881,23.57,97,100,1.93,ID,1710074508
461,al hazm,16.1641,44.7769,30.37,19,8,3.46,YE,1710074509
462,ixtapa,20.7,-105.2,17.9,100,0,2.57,MX,1710074509
463,aguilares,-27.4338,-65.6143,28.76,69,8,0.69,AR,1710074510
464,alausi,-2.2,-78.8333,11.73,89,100,2.33,EC,1710074510
465,salur,18.5333,83.2167,27.92,59,11,3.48,IN,1710074510
466,pushkino,56.0172,37.8667,-2.81,79,100,3.02,RU,1710074511
467,sao jose da coroa grande,-8.8978,-35.1478,29.16,61,89,3.54,BR,1710074334
468,sonson,5.7106,-75.3107,14.54,84,99,0.81,CO,1710074511
469,vanimo,-2.6741,141.3028,25.57,93,100,2.04,PG,1710074513
470,princeville,45.7668,-61.2985,-0.81,86,100,7.72,CA,1710074513
471,lerwick,60.1545,-1.1494,4.0,72,100,8.89,GB,1710074514
472,howard springs,-12.497,131.047,28.23,91,100,3.78,AU,1710074514
473,horta,38.5333,-28.6333,17.23,82,40,7.15,PT,1710074515
474,happy valley-goose bay,53.3168,-60.3315,-4.83,58,75,1.03,CA,1710074515
475,kuta,-8.7233,115.1723,26.97,88,75,10.29,ID,1710074516
476,qamdo,31.1667,97.2333,-5.37,25,2,1.14,CN,1710074517
477,itapirapua,-15.8233,-50.6133,26.8,83,100,1.72,BR,1710074517
478,dancu,46.7592,28.2089,14.04,33,16,4.99,MD,1710074518
479,beboto,8.2668,16.939,43.01,5,11,3.64,TD,1710074518
480,ufa,54.775,56.0375,-6.35,84,100,1.79,RU,1710074519
481,pisco,-13.7,-76.2167,22.79,78,91,1.03,PE,1710074519
482,jalqani,12.4486,34.2186,39.67,5,0,3.03,SD,1710074520
483,lethem,3.3803,-59.7968,29.03,70,20,6.17,GY,1710074520
484,wenatchee,47.4235,-120.3103,8.21,81,100,4.12,US,1710074521
485,damghan,36.1683,54.348,14.92,21,96,2.87,IR,1710074521
486,seka,17.9285,103.9552,27.94,57,79,1.96,TH,1710074522
487,wenchang,30.904,118.4887,10.94,73,59,2.41,CN,1710074522
488,kuybyshev,55.4475,78.3218,-2.16,84,100,7.19,RU,1710074523
489,papao,-17.75,-149.55,25.82,86,100,6.19,PF,1710074523
490,tadine,-21.55,167.8833,25.17,89,58,12.43,NC,1710074524
491,paungde,18.4833,95.5,29.76,17,5,3.56,MM,1710074525
492,ceerigaabo,10.6162,47.368,24.5,48,62,1.15,SO,1710074525
493,oposhnya,49.9565,34.6123,4.31,49,100,5.19,UA,1710074526
494,kataysk,56.289,62.5841,-5.37,92,100,1.7,RU,1710074526
495,idrinskoye,54.3708,92.1358,-4.47,94,93,1.06,RU,1710074527
496,deqen,29.9618,90.7188,4.1,11,52,1.79,CN,1710074527
497,samarinda,-0.5,117.15,22.97,98,100,1.43,ID,1710074528
498,arno,60.1167,18.6333,-1.23,71,100,4.21,SE,1710074528
499,boquira,-12.8231,-42.7306,29.86,54,100,1.31,BR,1710074528
500,patacamaya,-17.2333,-67.9167,6.98,90,100,3.16,BO,1710074529
501,sitka,57.0531,-135.33,4.94,60,75,7.2,US,1710074530
502,la gi,10.6667,107.7833,25.85,83,17,9.15,VN,1710074530
503,broken hill,-31.95,141.4333,28.03,29,0,6.45,AU,1710074445
504,greymouth,-42.4667,171.2,11.22,89,100,1.53,NZ,1710074531
505,det udom,14.906,105.0784,31.9,60,100,2.16,TH,1710074531
506,rundu,-17.9333,19.7667,34.06,30,85,2.47,NA,1710074532
507,morondava,-20.2833,44.2833,28.15,71,100,1.27,MG,1710074532
508,bowling green,36.9903,-86.4436,1.96,78,0,2.06,US,1710074532
509,elva,58.2225,26.4211,2.9,60,20,1.54,EE,1710074533
510,richards bay,-28.783,32.0377,33.09,54,0,7.41,ZA,1710074534
511,peterhead,57.5058,-1.7981,5.22,83,100,11.17,GB,1710074534
512,shache,38.4167,77.2406,12.26,19,33,2.92,CN,1710074534
513,handan,36.6006,114.4678,12.82,46,100,1.48,CN,1710074534
514,port douglas,-16.4833,145.4667,26.5,84,98,5.42,AU,1710074535
515,northam,51.0333,-4.2167,10.92,86,58,1.29,GB,1710074535
516,kone,-21.0595,164.8658,24.9,81,5,2.8,NC,1710074536
517,uberaba,-19.7483,-47.9319,24.32,88,75,2.57,BR,1710074536
518,klaksvik,62.2266,-6.589,6.51,70,24,6.25,FO,1710074536
519,cavelossim,15.1726,73.9419,28.99,61,0,3.06,IN,1710074537
520,kalifornsky,60.4183,-151.29,-5.89,79,0,1.54,US,1710074537
521,taulaga,-11.0553,-171.0883,28.95,80,30,6.53,AS,1710074537
522,at taj,24.2049,23.2857,29.88,10,0,6.08,LY,1710074538
523,kirakira,-10.4544,161.9205,27.14,86,100,2.61,SB,1710074538
524,khandyga,62.6667,135.6,-29.75,100,87,0.65,RU,1710074539
525,santana,-0.0583,-51.1817,27.1,89,100,1.03,BR,1710074539
526,karwar,14.8,74.1333,27.33,66,0,3.19,IN,1710074540
527,olyokminsk,60.3736,120.4264,-16.9,98,98,0.86,RU,1710074540
528,nikolayevsk-on-amure,53.1406,140.73,-13.8,99,100,0.33,RU,1710074541
529,sleaford,52.9983,-0.4094,7.92,97,100,7.2,GB,1710074542
530,san pedro pochutla,15.7333,-96.4667,21.65,80,0,1.36,MX,1710074542
531,lovisa,60.4566,26.2251,2.38,95,83,1.41,FI,1710074542
532,iskateley,67.6803,53.1512,-18.32,96,29,1.34,RU,1710074543
533,kupang,-10.1667,123.5833,26.32,100,100,3.09,ID,1710074544
534,sanming,26.2486,117.6186,14.84,89,100,1.28,CN,1710074544
535,bukama,-9.2,25.85,31.19,60,23,0.94,CD,1710074545
536,lata,40.1629,-8.3327,14.9,72,91,6.9,PT,1710074545
537,xai-xai,-25.0519,33.6442,30.93,56,0,5.16,MZ,1710074546
538,xining,36.6167,101.7667,2.57,25,0,4.2,CN,1710074547
539,prineville,44.2999,-120.8345,7.39,62,0,4.02,US,1710074547
540,taro,-8.3862,115.28,23.0,92,100,1.18,ID,1710074549
541,namibe,-15.1961,12.1522,28.53,71,70,3.43,AO,1710074549
542,antalaha,-14.9003,50.2788,29.19,69,95,4.72,MG,1710074550
543,naze,28.3667,129.4833,9.51,58,0,2.61,JP,1710074550
544,fuerte olimpo,-21.0415,-57.8738,33.47,50,71,2.86,PY,1710074552
545,young,-32.6833,-57.6333,26.23,55,0,5.72,UY,1710074552
546,grand-bassam,5.2118,-3.7388,30.98,66,82,4.3,CI,1710074552
547,vereshchagino,58.0789,54.6557,-9.59,86,100,1.68,RU,1710074553
548,ouallam,14.3188,2.0866,41.22,6,56,4.28,NE,1710074553
549,tvoroyri,61.5556,-6.8111,5.46,78,100,7.41,FO,1710074553
550,meulaboh,4.1363,96.1285,26.82,82,100,0.15,ID,1710074554
551,wanganui,-39.9333,175.05,13.7,89,100,4.95,NZ,1710074554
552,hami,42.8,93.45,10.41,25,10,1.22,CN,1710074554
553,rio verde de mato grosso,-18.9181,-54.8442,26.05,83,100,1.93,BR,1710074334
554,beau vallon,-20.4189,57.6953,29.13,84,40,5.66,MU,1710074555
555,villa yapacani,-17.4,-63.8333,26.7,84,100,2.91,BO,1710074555
556,tanout,14.9709,8.8879,38.92,6,24,6.48,NE,1710074556
557,sai buri,6.7013,101.6168,26.48,76,100,4.22,TH,1710074556
558,coquimbo,-29.9533,-71.3436,16.85,88,75,2.06,CL,1710073997
559,bengkulu,-3.8004,102.2655,26.04,87,100,3.34,ID,1710074558
560,paloncha,17.6,80.6833,33.13,30,19,2.28,IN,1710074558
561,haparanda,65.8355,24.1368,4.03,91,94,3.45,SE,1710074558
562,ubinskoye,55.3068,79.6802,-1.8,88,100,7.36,RU,1710074559
563,general conesa,-40.1,-64.4333,23.62,23,20,6.05,AR,1710074559
564,bull savanna,17.8868,-77.5902,24.44,76,37,3.22,JM,1710074560
565,xam nua,20.4197,104.0439,17.41,86,67,1.75,LA,1710074560
566,mushie,-3.0167,16.9,34.13,46,99,2.16,CD,1710074560
567,laughlin,35.1678,-114.573,12.3,41,0,1.54,US,1710074561
568,midvagur,62.0511,-7.1939,6.46,65,100,6.69,FO,1710074561
569,morehead city,34.7229,-76.726,16.0,81,0,6.69,US,1710074263
570,khorramshahr,30.4397,48.1664,28.97,20,0,6.17,IR,1710074562
571,mhamid,29.82,-5.72,26.47,17,0,4.47,MA,1710074562
572,whitby,54.4877,-0.615,6.84,90,100,2.68,GB,1710074563
573,berezovo,63.9381,65.0419,-23.63,98,91,1.43,RU,1710074563
574,gornopravdinsk,60.05,69.9,-16.27,97,97,1.86,RU,1710074564
575,digras,20.1167,77.7167,33.65,16,2,2.5,IN,1710074564
576,marquette,46.5333,-87.6335,-2.04,72,61,3.13,US,1710074564
577,bamyan,34.75,67.25,-3.17,88,100,1.57,AF,1710074565
578,alexandria,31.2156,29.9553,17.76,54,0,5.86,EG,1710074362
579,alta,69.9689,23.2717,3.59,81,75,7.72,NO,1710074566
580,ouahigouya,13.5828,-2.4216,39.58,7,15,3.03,BF,1710074566
581,cam ranh,11.9214,109.1591,26.98,78,20,3.6,VN,1710074567
582,brokopondo,4.75,-55.1667,27.62,69,75,3.02,SR,1710074567
583,aketi,2.7388,23.7833,37.6,29,100,0.24,CD,1710074568
584,altamont,42.2068,-121.7372,3.77,76,75,7.72,US,1710074568
585,oranjemund,-28.55,16.4333,21.55,68,10,6.83,NA,1710074569
586,madimba,-10.4,40.3333,32.62,66,40,6.17,TZ,1710074571
587,kostomuksha,64.571,30.5767,-1.65,92,100,3.58,RU,1710074571
588,seybaplaya,19.65,-90.6667,25.13,86,57,2.57,MX,1710074571
589,dakhla,23.6848,-15.958,20.01,68,100,5.14,EH,1710074572
590,karasuk,53.7377,78.0403,-1.19,83,100,6.95,RU,1710074573
591,al ghayzah,16.2079,52.176,28.54,71,10,7.7,YE,1710074574
592,dubbo,-32.25,148.6167,25.07,50,0,7.72,AU,1710074574
593,zyryanskoye,56.8306,86.6258,1.38,98,100,7.36,RU,1710074575
