City_ID,City,Lat,Lng,Max Temp,Humidity,Cloudiness,Wind Speed,Country,Date
0,yellowknife,62.456,-114.3525,-3.66,83,75,5.66,CA,1712010833
1,tura,25.5198,90.2201,20.29,81,4,2.54,IN,1712010853
2,cidreira,-30.1811,-50.2056,23.32,89,4,5.6,BR,1712010853
3,adamstown,-25.066,-130.1015,23.87,77,94,7.74,PN,1712010854
4,vila velha,-20.3297,-40.2925,26.97,81,75,3.09,BR,1712010447
5,vilyuchinsk,52.9306,158.4028,0.15,79,52,4.52,RU,1712010854
6,usogorsk,63.4106,48.6872,0.37,93,100,5.06,RU,1712010854
7,longyearbyen,78.2186,15.6401,-16.09,78,75,2.06,SJ,1712010855
8,tromso,69.6496,18.957,-8.99,86,0,1.54,NO,1712010855
9,grytviken,-54.2811,-36.5092,1.51,85,26,4.25,GS,1712010855
10,keflavik,64.0049,-22.5624,-3.76,54,20,11.32,IS,1712010855
11,papatowai,-46.5619,169.4708,14.71,64,58,0.52,NZ,1712010856
12,imbituba,-28.24,-48.6703,22.68,90,33,5.23,BR,1712010856
13,bredasdorp,-34.5322,20.0403,16.98,77,31,6.77,ZA,1712010856
14,westport,41.1415,-73.3579,12.19,63,100,0.45,US,1712010800
15,akobo,7.4344,3.9497,25.04,91,100,1.75,NG,1712010857
16,tiksi,71.6872,128.8694,-10.04,91,100,2.66,RU,1712010857
17,pikeville,37.4793,-82.5188,26.77,50,100,2.57,US,1712010692
18,port-aux-francais,-49.35,70.2167,6.44,76,50,8.6,TF,1712010857
19,mustafabad,30.8922,73.4989,18.66,30,64,1.34,PK,1712010857
20,kailua-kona,19.6406,-155.9956,26.27,80,40,4.12,US,1712010858
21,pariaman,-0.619,100.12,26.03,91,95,1.59,ID,1712010858
22,west island,-12.1568,96.8225,26.99,83,40,5.66,CC,1712010858
23,talnakh,69.4865,88.3972,-15.87,96,100,6.17,RU,1712010647
24,mpanda,-6.3655,31.0409,18.43,97,75,0.51,TZ,1712010859
25,olonkinbyen,70.9221,-8.7187,-5.41,57,100,5.51,SJ,1712010859
26,colonia,50.9333,6.95,9.98,84,0,4.12,DE,1712010604
27,altentreptow,53.6833,13.25,9.18,82,100,9.37,DE,1712010859
28,waitangi,-43.9535,-176.5597,14.34,79,100,0.89,NZ,1712010860
29,dudinka,69.4058,86.1778,-15.18,90,100,6.26,RU,1712010860
30,invercargill,-46.4,168.35,15.01,76,8,1.79,NZ,1712010860
31,albany,42.6001,-73.9662,13.23,50,99,0.45,US,1712010852
32,bethel,41.3712,-73.414,12.05,52,75,2.06,US,1712010637
33,troitsk,54.0979,61.5773,1.68,100,98,4.92,RU,1712010861
34,trinidad,-14.8333,-64.9,28.99,79,40,2.57,BO,1712010861
35,saipan,15.1355,145.701,28.39,1,40,8.75,MP,1712010862
36,sola,-13.8833,167.55,27.61,79,44,5.49,VU,1712010862
37,iwanai,42.9744,140.5089,2.71,69,98,6.19,JP,1712010862
38,fortuna,40.5982,-124.1573,18.85,68,0,6.17,US,1712010862
39,vorgashor,67.5833,63.95,-17.61,99,100,2.72,RU,1712010863
40,klyuchi,52.2667,79.1667,2.46,75,100,3.59,RU,1712010863
41,ivdel',60.6911,60.4206,-2.76,92,97,1.79,RU,1712010740
42,port hedland,-20.3167,118.5667,27.03,47,1,2.57,AU,1712010863
43,iqaluit,63.7506,-68.5145,0.85,86,100,12.35,CA,1712010613
44,port mathurin,-19.6833,63.4167,26.12,85,91,6.22,MU,1712010864
45,ushuaia,-54.8,-68.3,9.81,53,40,6.69,AR,1712010605
46,likasi,-10.9814,26.7333,18.02,99,100,0.2,CD,1712010865
47,chonchi,-42.6128,-73.8092,13.56,87,70,1.0,CL,1712010715
48,edinburgh of the seven seas,-37.0676,-12.3116,18.55,92,76,9.37,SH,1712010865
49,isafjordur,66.0755,-23.124,-3.76,79,99,11.23,IS,1712010725
50,ilulissat,69.2167,-51.1,-2.99,86,75,0.0,GL,1712010866
51,sitka,57.0531,-135.33,6.94,57,100,9.77,US,1712010866
52,petropavlovsk-kamchatsky,53.0452,158.6483,-0.67,81,0,6.71,RU,1712010866
53,alaghsas,17.0187,8.0168,31.88,10,4,3.96,NE,1712010867
54,zhangye,38.9342,100.4517,3.84,95,100,2.88,CN,1712010717
55,puerto natales,-51.7236,-72.4875,6.16,91,100,2.18,CL,1712010653
56,margaret river,-33.95,115.0667,9.97,86,1,4.87,AU,1712010867
57,bilibino,68.0546,166.4372,-18.98,66,95,0.88,RU,1712010740
58,jos,9.9167,8.9,23.75,54,98,2.41,NG,1712010868
59,iskateley,67.6803,53.1512,-9.43,87,100,4.92,RU,1712010868
60,boa vista,2.8197,-60.6733,34.99,34,40,3.6,BR,1712010680
61,labuan,5.2767,115.2417,26.2,94,40,0.0,MY,1712010869
62,keminmaa,65.8596,24.8228,-6.13,73,20,8.23,FI,1712010869
63,san ignacio rio muerto,27.4167,-110.2333,24.29,25,1,3.85,MX,1712010869
64,wailua homesteads,22.0669,-159.378,25.24,81,100,6.69,US,1712010869
65,thunder bay,48.4001,-89.3168,0.99,69,20,6.17,CA,1712010637
66,badger,64.8,-147.5333,4.84,40,0,3.09,US,1712010870
67,puerto ayora,-0.7393,-90.3518,28.98,89,46,4.92,EC,1712010870
68,chui,-33.6971,-53.4616,16.14,87,100,5.36,UY,1712010655
69,whitehorse,60.7161,-135.0538,3.43,40,100,3.6,CA,1712010871
70,harper,4.375,-7.7169,27.43,87,23,1.79,LR,1712010871
71,cananeia,-25.0147,-47.9267,24.12,85,85,2.88,BR,1712010763
72,nova vicosa,-17.8919,-39.3719,26.71,76,98,4.7,BR,1712010851
73,stanley,54.868,-1.6985,3.77,97,20,1.54,GB,1712010872
74,afaahiti,-17.75,-149.2833,29.93,70,83,8.18,PF,1712010872
75,nuuk,64.1835,-51.7216,-0.66,74,40,4.12,GL,1712010872
76,bandarbeyla,9.4942,50.8122,27.58,76,19,3.63,SO,1712010872
77,codrington,-38.2667,141.9667,15.99,81,73,7.18,AU,1712010873
78,tazovsky,67.4667,78.7,-11.18,97,97,3.29,RU,1712010873
79,isangel,-19.55,169.2667,29.06,74,75,2.57,VU,1712010873
80,lensk,60.7253,114.9278,-2.01,92,100,3.76,RU,1712010797
81,polyarnyy,69.1989,33.4478,-8.63,76,98,5.59,RU,1712010798
82,shingu,33.7333,135.9833,14.54,48,24,0.55,JP,1712010874
83,weisswasser,51.5167,14.6333,11.22,76,100,5.63,DE,1712010874
84,fremantle,-32.05,115.7667,15.1,67,0,7.72,AU,1712010763
85,blackmans bay,-43.0167,147.3167,15.41,95,100,2.17,AU,1712010875
86,hawaiian paradise park,19.5933,-154.9731,26.6,77,100,3.6,US,1712010875
87,sinabang,2.4803,96.3801,27.03,80,97,0.85,ID,1712010875
88,broken hill,-31.95,141.4333,14.8,66,0,7.55,AU,1712010590
89,george town,5.4112,100.3354,28.3,89,20,1.03,MY,1712010851
90,anadyr,64.75,177.4833,-16.72,70,40,4.0,RU,1712010876
91,christchurch,-43.5333,172.6333,15.51,74,100,1.54,NZ,1712010567
92,thompson,55.7435,-97.8558,1.09,40,75,4.12,CA,1712010767
93,along,28.1667,94.7667,17.92,95,100,1.26,IN,1712010877
94,kenai,60.5544,-151.2583,3.05,82,75,5.66,US,1712010877
95,qaqortoq,60.7167,-46.0333,-6.01,81,13,1.78,GL,1712010877
96,melfort,52.8667,-104.6177,7.07,61,82,4.12,CA,1712010877
97,tual,-5.6667,132.75,28.28,77,100,2.06,ID,1712010878
98,rawson,-43.3002,-65.1023,16.31,31,1,3.39,AR,1712010878
99,st. john's,47.5649,-52.7093,1.55,95,100,3.6,CA,1712010604
100,tamanrasset,22.785,5.5228,22.95,10,0,2.57,DZ,1712010878
101,constantia,44.1833,28.65,15.39,72,32,4.39,RO,1712010878
102,novyy urengoy,66.0833,76.6333,-12.41,98,94,2.42,RU,1712010879
103,tolanaro,-25.0319,46.9987,22.67,83,100,6.82,MG,1712010879
104,kodiak,57.79,-152.4072,0.73,55,40,8.75,US,1712010879
105,port alfred,-33.5906,26.891,18.69,93,96,6.85,ZA,1712010880
106,kapuskasing,49.4169,-82.4331,2.0,48,75,1.54,CA,1712010880
107,kone,-21.0595,164.8658,28.05,57,15,2.01,NC,1712010880
108,hovd,48.0056,91.6419,-0.52,49,58,0.52,MN,1712010880
109,makouda,36.7857,4.0627,9.61,85,44,2.51,DZ,1712010880
110,altamira,-3.2033,-52.2064,24.93,96,100,1.03,BR,1712010881
111,atafu village,-8.5421,-172.5159,30.05,71,8,5.44,TK,1712010881
112,formosa do rio preto,-11.0483,-45.1931,26.09,64,100,1.14,BR,1712010881
113,aasiaat,68.7098,-52.8699,-6.43,85,63,2.09,GL,1712010881
114,college,64.8569,-147.8028,4.89,36,40,3.09,US,1712010882
115,sen monorom,12.45,107.2,20.54,92,6,1.72,KH,1712010882
116,langzhong,31.5504,105.9938,17.83,82,100,1.17,CN,1712010882
117,hermanus,-34.4187,19.2345,16.0,87,84,5.73,ZA,1712010882
118,camargo,27.6667,-105.1667,24.64,11,0,14.84,MX,1712010882
119,jamestown,42.097,-79.2353,13.07,54,0,4.63,US,1712010624
120,mossel bay,-34.1831,22.146,15.96,70,6,5.6,ZA,1712010883
121,duekoue,6.7472,-7.3496,24.18,96,75,1.48,CI,1712010883
122,shilka,51.85,116.0333,-2.28,85,100,5.69,RU,1712010797
123,lebu,-37.6167,-73.65,11.83,79,83,2.83,CL,1712010884
124,jose maria morelos,23.3952,-103.8984,20.95,34,1,14.11,MX,1712010884
125,dezhou,37.4486,116.2925,8.75,47,100,4.91,CN,1712010884
126,san patricio,28.017,-97.5169,30.65,65,99,6.48,US,1712010884
127,ain beida,35.7964,7.3928,8.89,88,90,1.58,DZ,1712010885
128,fuli,46.7217,131.1394,0.94,53,6,4.59,CN,1712010885
129,igarka,67.4667,86.5833,-12.91,91,100,7.88,RU,1712010885
130,enewetak,11.3474,162.3373,27.07,72,91,6.85,MH,1712010886
131,hammerfest,70.6634,23.6821,-7.75,86,75,5.66,NO,1712010886
132,shagonar,51.5333,92.8,-3.98,91,49,0.74,RU,1712010886
133,kargasok,59.0556,80.8572,-1.13,71,100,5.81,RU,1712010886
134,dois vizinhos,-25.7336,-53.0572,20.87,75,24,1.02,BR,1712010605
135,thames,-37.1333,175.5333,18.42,57,5,1.44,NZ,1712010887
136,hithadhoo,-0.6,73.0833,29.03,74,100,2.11,MV,1712010887
137,nagqu,31.5,92.0,-3.14,33,100,1.71,CN,1712010887
138,totness,5.8833,-56.3167,27.22,81,59,5.48,SR,1712010887
139,bamboo flat,11.7,92.7167,23.05,94,1,1.03,IN,1712010888
140,hiratacho,35.4333,132.8167,6.98,81,38,3.6,JP,1712010888
141,ust-nera,64.5667,143.2,-13.7,85,57,0.74,RU,1712010888
142,portland,45.5234,-122.6762,21.58,43,40,0.89,US,1712010352
143,gazli,40.1333,63.45,11.25,42,100,3.55,UZ,1712010888
144,xining,36.6167,101.7667,4.31,75,100,0.3,CN,1712010889
145,saynshand,44.8824,110.1163,2.33,65,45,1.7,MN,1712010889
146,laguna,38.421,-121.4238,22.99,35,0,3.6,US,1712010305
147,srandakan,-7.9386,110.2506,26.27,88,99,2.3,ID,1712010889
148,avarua,-21.2078,-159.775,30.03,66,20,7.2,CK,1712010890
149,khovd,48.0056,91.6419,-0.52,49,58,0.52,MN,1712010880
150,kabul,34.5,69.4167,8.43,40,1,1.13,AF,1712010600
151,aripuana,-9.1667,-60.6333,23.96,99,100,0.94,BR,1712010890
152,norrtalje,59.758,18.705,1.02,87,100,6.82,SE,1712010890
153,howard springs,-12.497,131.047,26.6,90,98,3.33,AU,1712010891
154,uzgen,40.7699,73.3007,4.16,51,56,2.46,KG,1712010891
155,udachny,66.4167,112.4,-17.12,96,99,3.46,RU,1712010891
156,eastham,41.8301,-69.9739,9.41,80,75,1.54,US,1712010662
157,hamilton,39.1834,-84.5333,21.35,79,40,2.57,US,1712010427
158,marka,1.7159,44.7717,28.26,75,28,3.42,SO,1712010892
159,hillsboro,45.5229,-122.9898,21.35,46,0,2.06,US,1712010808
160,namtsy,62.7161,129.6658,-15.39,99,97,1.22,RU,1712010892
161,yuci,37.6803,112.7319,10.86,76,20,5.0,CN,1712010892
162,novyy urgal,51.0736,132.5642,-6.98,86,63,0.51,RU,1712010893
163,eyl,7.9803,49.8164,27.5,80,20,5.75,SO,1712010893
164,sangkhla buri,15.1555,98.4536,20.15,72,0,0.56,TH,1712010893
165,iquique,-20.2208,-70.1431,22.02,81,9,1.63,CL,1712010693
166,goure,13.9835,10.2704,28.75,15,100,2.08,NE,1712010894
167,ust-tsilma,65.441,52.1498,-2.99,96,100,5.81,RU,1712010894
168,kameyama,34.85,136.45,9.66,47,3,1.05,JP,1712010894
169,coquimbo,-29.9533,-71.3436,18.85,72,0,4.63,CL,1712010711
170,minas de marcona,-15.2119,-75.1103,18.93,73,86,5.55,PE,1712010895
171,pisco,-13.7,-76.2167,25.03,69,0,7.72,PE,1712010850
172,ha tinh,18.3333,105.9,26.05,54,0,1.17,VN,1712010895
173,pico truncado,-46.7949,-67.9573,13.47,33,3,7.24,AR,1712010895
174,gweru,-19.45,29.8167,15.19,70,65,3.1,ZW,1712010895
175,nova sintra,14.8667,-24.7167,19.68,79,7,6.58,CV,1712010896
176,chegdomyn,51.1167,133.0167,-5.93,86,85,0.63,RU,1712010896
177,ulladulla,-35.35,150.4667,21.21,60,98,4.49,AU,1712010311
178,qamdo,31.1667,97.2333,-3.11,65,46,2.23,CN,1712010896
179,muravlenko,63.7898,74.523,-7.65,97,94,2.9,RU,1712010896
180,vernon,50.2581,-119.2691,19.4,25,54,1.54,CA,1712010877
181,nadi,-17.8,177.4167,30.0,70,75,0.0,FJ,1712010897
182,lexington,37.9887,-84.4777,24.07,63,0,4.63,US,1712010602
183,fort bragg,35.139,-79.006,28.08,50,0,5.14,US,1712010897
184,havre,49.5833,0.3333,9.87,76,0,7.2,FR,1712010898
185,la ronge,55.1001,-105.2842,5.14,56,100,9.26,CA,1712010898
186,kavieng,-2.5744,150.7967,28.17,78,100,8.09,PG,1712010898
187,bu'aale,1.0833,42.5833,25.58,87,97,1.09,SO,1712010898
188,temiskaming shores,47.4938,-79.7153,3.89,54,51,2.66,CA,1712010898
189,umluj,25.0213,37.2685,27.28,51,25,3.98,SA,1712010899
190,biesenthal,52.7662,13.6442,12.13,66,100,6.41,DE,1712010899
191,mudgee,-32.5943,149.5871,20.9,90,72,2.58,AU,1712010669
192,lihue,21.9789,-159.3672,25.58,81,100,6.69,US,1712010899
193,bayanhongor,46.7167,100.1167,-4.88,39,97,1.65,MN,1712010899
194,kayangel,8.0823,134.7173,27.8,80,93,7.42,PW,1712010900
195,vila franca do campo,37.7167,-25.4333,16.23,86,31,8.33,PT,1712010305
196,praia da vitoria,38.7333,-27.0667,16.14,72,20,8.62,PT,1712010900
197,ribeira grande,38.5167,-28.7,15.99,82,81,9.39,PT,1712010900
198,nemuro,43.3236,145.575,1.42,74,93,5.19,JP,1712010901
199,selty,57.3132,52.1345,2.1,99,100,4.51,RU,1712010799
200,susuman,62.7833,148.1667,-15.33,85,86,1.31,RU,1712010901
201,punta arenas,-53.15,-70.9167,9.06,66,75,5.66,CL,1712010901
202,marathon,44.9,-89.7668,4.97,67,100,4.63,US,1712010902
203,georgetown,5.4112,100.3354,28.3,89,20,1.03,MY,1712010851
204,rongelap,11.1635,166.8941,27.28,73,100,7.85,MH,1712010902
205,holualoa,19.6228,-155.9522,24.2,80,40,4.12,US,1712010902
206,wynyard,-41.0,145.7167,14.88,91,100,3.16,AU,1712010903
207,princeville,45.7668,-61.2985,0.84,74,100,5.14,CA,1712010903
208,myskhako,44.6714,37.7433,14.77,58,99,2.46,RU,1712010903
209,port lincoln,-34.7333,135.8667,16.18,70,27,6.92,AU,1712010903
210,peace river,56.2501,-117.286,11.17,18,75,7.2,CA,1712010904
211,jaffa,32.0504,34.7522,23.38,40,0,5.14,IL,1712010904
212,macapa,0.0389,-51.0664,29.99,79,40,4.63,BR,1712010776
213,gobabis,-22.45,18.9667,19.04,76,37,3.66,NA,1712010904
214,celestun,20.8667,-90.4,27.64,66,2,6.22,MX,1712010905
215,norilsk,69.3535,88.2027,-15.06,96,100,4.9,RU,1712010661
216,port elizabeth,-33.918,25.5701,17.83,74,100,2.06,ZA,1712010905
217,benjamin constant,-4.3831,-70.0311,30.07,74,20,1.54,BR,1712010905
218,saudarkrokur,65.7461,-19.6394,-3.67,79,43,10.63,IS,1712010906
219,sumbawa besar,-8.5,117.4333,24.38,93,83,1.77,ID,1712010789
220,deqen,29.9618,90.7188,2.58,42,35,2.27,CN,1712010906
221,hastings,50.8552,0.5729,11.18,88,18,9.4,GB,1712010907
222,pacasmayo,-7.4006,-79.5714,23.06,78,31,5.73,PE,1712010907
223,ghat,24.9647,10.1728,25.92,9,1,1.87,LY,1712010907
224,plastun,44.7561,136.2939,2.37,49,0,4.85,RU,1712010736
225,kiunga,-6.1219,141.2906,24.19,99,99,0.4,PG,1712010384
226,le port,-20.9373,55.2919,25.0,93,100,2.17,RE,1712010908
227,karratha,-20.7377,116.8463,29.14,36,1,6.15,AU,1712010908
228,bijar,35.8668,47.6051,6.42,60,4,1.96,IR,1712010908
229,altai,46.3722,96.2583,-2.35,42,100,0.96,MN,1712010909
230,tadine,-21.55,167.8833,26.19,66,52,5.29,NC,1712010909
231,siwa oasis,29.2041,25.5195,22.4,31,0,3.7,EG,1712010909
232,tomatlan,19.9333,-105.25,31.28,39,86,5.24,MX,1712010909
233,canasgordas,6.7499,-76.0254,23.74,85,98,2.24,CO,1712010910
234,gaspe,48.8334,-64.4819,4.12,38,75,6.17,CA,1712010782
235,newman,37.3138,-121.0208,21.27,48,0,4.02,US,1712010910
236,mersing,2.4312,103.8405,25.95,94,20,3.09,MY,1712010910
237,al burayqah,30.4062,19.5739,21.8,51,0,3.99,LY,1712010911
238,callao,-12.0667,-77.15,24.16,69,0,7.2,PE,1712010779
239,kwale,5.7063,6.4374,27.79,75,99,1.68,NG,1712010911
240,nar'yan-mar,67.6713,53.087,-9.38,87,100,4.92,RU,1712010796
241,sucua,-2.4667,-78.1667,24.41,83,75,0.33,EC,1712010912
242,lillehammer,61.1146,10.4674,2.21,89,100,1.18,NO,1712010912
243,northam,51.0333,-4.2167,8.7,94,27,3.25,GB,1712010912
244,kerikeri,-35.2268,173.9474,20.51,76,60,1.0,NZ,1712010912
245,vilyuysk,63.7553,121.6247,-24.44,100,97,0.45,RU,1712010913
246,vanimo,-2.6741,141.3028,27.6,86,90,1.74,PG,1712010913
247,bereza,53.5183,50.1397,0.01,100,100,3.0,RU,1712010913
248,taoudenni,22.6783,-3.9836,31.36,13,41,5.19,ML,1712010913
249,argostolion,38.1811,20.489,17.08,48,71,5.56,GR,1712010914
250,rock springs,41.5875,-109.2029,7.35,60,100,3.6,US,1712010843
251,arraial do cabo,-22.9661,-42.0278,23.98,78,20,2.57,BR,1712010914
252,divnogorsk,55.9594,92.3619,-4.03,93,97,1.69,RU,1712010736
253,kruisfontein,-34.0033,24.7314,16.6,75,99,2.25,ZA,1712010915
254,antsiranana,-12.2787,49.2917,25.51,90,87,4.29,MG,1712010915
255,inhambane,-23.865,35.3833,24.21,84,80,3.91,MZ,1712010915
256,castricum,52.5483,4.6694,10.04,69,12,6.92,NL,1712010915
257,rubizhne,49.0123,38.3797,14.14,46,67,2.67,UA,1712010916
258,khandyga,62.6667,135.6,-16.73,96,100,0.11,RU,1712010916
259,new norfolk,-42.7826,147.0587,16.07,98,100,0.98,AU,1712010916
260,mana,5.6592,-53.7767,26.6,81,52,3.21,GF,1712010916
261,dergachi,51.2328,48.7659,9.86,81,100,3.75,RU,1712010917
262,flying fish cove,-10.4217,105.6791,25.82,88,75,2.57,CX,1712010917
263,puerto baquerizo moreno,-0.9,-89.6,27.55,78,20,1.54,EC,1712010738
264,crane,31.3974,-102.3501,21.6,19,58,14.65,US,1712010917
265,contamana,-7.3333,-75.0167,24.79,93,94,0.89,PE,1712010918
266,cockburn town,21.4612,-71.1419,24.65,67,1,8.48,TC,1712010620
267,launceston,-41.45,147.1667,15.8,100,100,3.6,AU,1712010876
268,bar,49.0772,27.6826,16.25,48,62,3.57,UA,1712010918
269,mugia,43.1041,-9.2179,13.84,84,94,12.57,ES,1712010918
270,grand forks,47.9417,-97.4337,8.21,24,0,2.57,US,1712010759
271,galliano,29.4422,-90.2992,26.11,78,100,3.6,US,1712010919
272,dataganj,28.0333,79.4,20.42,22,74,3.95,IN,1712010919
273,sandnessjoen,66.0217,12.6316,-0.71,72,93,9.16,NO,1712010920
274,copala,16.65,-98.9833,28.8,61,9,4.14,MX,1712010920
275,leisnig,51.1667,12.9167,10.08,74,100,6.15,DE,1712010920
276,haiku-pauwela,20.9219,-156.3051,26.01,75,40,10.8,US,1712010921
277,yarmouth,41.7057,-70.2286,10.64,78,100,1.54,US,1712010734
278,kavaratti,10.5669,72.642,28.19,75,9,2.95,IN,1712010921
279,mersa matruh,31.3525,27.2453,17.11,88,0,2.06,EG,1712010691
280,kapa'a,22.0752,-159.319,25.99,81,100,6.69,US,1712010663
281,bathsheba,13.2167,-59.5167,28.34,69,20,7.2,BB,1712010922
282,tionk essil,12.7856,-16.5217,24.03,58,0,3.57,SN,1712010802
283,weno,7.4515,151.8468,29.97,84,100,4.12,FM,1712010923
284,georgiyevka,43.0369,74.7114,2.02,100,55,0.0,KZ,1712010923
285,sosnovo-ozerskoye,52.5249,111.5418,-6.82,57,27,6.77,RU,1712010923
286,dunedin,-45.8742,170.5036,14.81,61,34,2.24,NZ,1712010923
287,shahba,32.8551,36.629,16.56,33,57,0.82,SY,1712010923
288,luganville,-15.5333,167.1667,27.57,86,72,4.34,VU,1712010924
289,ebolowa,2.9,11.15,22.73,91,98,0.83,CM,1712010924
290,kasongo-lunda,-6.4667,16.8167,20.79,87,78,0.14,CD,1712010924
291,dolores,-36.3132,-57.6792,13.79,80,66,2.92,AR,1712010679
292,lazaro cardenas,17.9583,-102.2,27.31,64,75,4.62,MX,1712010925
293,uyuni,-20.4597,-66.825,14.17,23,2,2.13,BO,1712010925
294,prabumulih,-3.45,104.25,23.56,99,78,1.0,ID,1712010925
295,galesong,-5.3166,119.3661,25.01,86,100,1.86,ID,1712010926
296,utrik,11.2278,169.8474,27.1,70,100,7.57,MH,1712010926
297,natal,-5.795,-35.2094,28.12,83,40,4.12,BR,1712010787
298,comodoro rivadavia,-45.8667,-67.5,17.92,27,0,6.69,AR,1712010894
299,fale old settlement,-9.3852,-171.2468,29.53,73,26,5.93,TK,1712010927
300,bikaner,28.0167,73.3,23.23,20,64,3.86,IN,1712010927
301,wuchang,44.9143,127.15,1.36,42,15,2.84,CN,1712010927
302,mulayjah,27.271,48.4242,23.03,38,40,1.71,SA,1712010927
303,salinas,36.6777,-121.6555,23.68,58,0,5.14,US,1712010793
304,ayora,39.0585,-1.0563,11.71,73,96,5.82,ES,1712010928
305,qulsary,46.9531,54.0198,9.88,53,5,2.9,KZ,1712010928
306,mili,6.0815,171.735,28.22,77,97,7.9,MH,1712010929
307,mareeba,-17.0,145.4333,24.69,87,91,1.89,AU,1712010929
308,loughrea,53.1969,-8.5669,4.87,94,86,2.03,IE,1712010929
309,la foa,-21.7108,165.8276,26.81,63,44,1.33,NC,1712010929
310,kayes,14.0,-11.0,37.24,17,24,2.68,ML,1712010929
311,selfoss,63.9331,-20.9971,-4.42,47,0,11.12,IS,1712010930
312,bonthe,7.5264,-12.505,26.16,90,26,2.78,SL,1712010930
313,geneina,13.45,22.45,25.05,10,100,4.47,SD,1712010930
314,palmer,42.1584,-72.3287,14.01,44,75,1.54,US,1712010721
315,argo,37.6333,22.7333,18.07,41,36,2.17,GR,1712010931
316,awjilah,29.1081,21.2869,25.11,27,0,3.79,LY,1712010367
317,vadso,70.0744,29.7487,-6.51,73,20,10.8,NO,1712010931
318,uturoa,-16.7333,-151.4333,28.22,76,95,8.24,PF,1712010931
319,oroqen zizhiqi,50.5667,123.7167,-5.86,79,53,0.96,CN,1712010932
320,amasya,40.6667,35.8333,11.82,54,12,0.85,TR,1712010932
321,boromo,11.75,-2.9333,34.76,15,100,3.22,BF,1712010932
322,sao jose da coroa grande,-8.8978,-35.1478,27.81,82,80,4.03,BR,1712010932
323,kani keli,-12.9536,45.1033,27.59,74,60,0.8,YT,1712010932
324,yigo village,13.5361,144.8886,27.63,76,40,9.26,GU,1712010933
325,sitia,35.2,26.0986,16.66,60,3,1.27,GR,1712010933
326,cambria,35.5641,-121.0808,23.32,69,0,4.41,US,1712010883
327,puerto santa,-8.9906,-78.6456,22.61,83,94,4.14,PE,1712010365
328,tongchuan,35.0806,109.0897,14.7,95,99,0.79,CN,1712010934
329,padre bernardo,-15.35,-48.5,23.74,86,93,0.71,BR,1712010934
330,wagar,16.1525,36.2032,28.48,19,4,4.55,SD,1712010934
331,san rafael,-34.6177,-68.3301,20.12,28,58,3.12,AR,1712010594
332,flin flon,54.7682,-101.865,-1.09,93,100,2.57,CA,1712010934
333,homer,59.6425,-151.5483,0.98,87,100,10.8,US,1712010935
334,slave lake,55.2834,-114.769,7.99,29,0,8.23,CA,1712010935
335,kargil,34.5667,76.1,-15.29,84,37,1.47,IN,1712010935
336,yeppoon,-23.1333,150.7333,23.88,80,30,4.55,AU,1712010935
337,villa sandino,12.0483,-84.9936,34.65,40,1,7.46,NI,1712010935
338,hengchun,22.0042,120.7439,25.12,80,1,3.33,TW,1712010936
339,ugoofaaru,5.6667,73.0,28.46,72,76,0.61,MV,1712010936
340,mount isa,-20.7333,139.5,24.87,78,72,0.0,AU,1712010936
341,santa elena de uairen,4.6167,-61.1333,24.12,69,97,2.08,VE,1712010937
342,san andres,12.5847,-81.7006,30.01,66,20,3.09,CO,1712010937
343,east london,-33.0153,27.9116,21.36,90,84,1.25,ZA,1712010937
344,arno,60.1167,18.6333,0.44,87,100,8.5,SE,1712010937
345,breves,-1.6822,-50.4803,25.04,96,99,1.52,BR,1712010938
346,rio grande,-32.035,-52.0986,21.06,86,100,10.67,BR,1712010104
347,humaita,-7.5061,-63.0208,24.54,95,100,0.81,BR,1712010938
348,alice springs,-23.7,133.8833,21.79,43,75,2.68,AU,1712010938
349,ola,59.5833,151.2833,-5.63,69,90,4.8,RU,1712010938
350,mar del plata,-38.0023,-57.5575,16.6,75,0,6.26,AR,1712010542
351,mangaratiba,-22.9597,-44.0406,24.48,90,40,1.18,BR,1712010939
352,auki,-8.7676,160.7034,28.91,72,73,0.84,SB,1712010939
353,tanda,26.55,82.65,22.22,24,87,3.73,IN,1712010939
354,acarau,-2.8856,-40.12,26.48,83,74,2.56,BR,1712010940
355,tofol,5.3248,163.0078,28.88,74,75,5.14,FM,1712010940
356,zag,46.9441,99.165,-4.07,39,100,2.1,MN,1712010940
357,nadym,65.5333,72.5167,-12.28,96,71,4.86,RU,1712010940
358,tazacorte,28.629,-17.9293,18.54,85,75,2.06,ES,1712010941
359,la paz,-16.5,-68.15,14.99,57,75,2.57,BO,1712010650
360,happy valley-goose bay,53.3168,-60.3315,2.17,93,100,4.63,CA,1712010941
361,anapa,44.8908,37.3239,11.19,40,0,3.0,RU,1712010941
362,fort st. john,56.2499,-120.8529,9.94,16,75,7.2,CA,1712010666
363,gornozavodsk,58.3758,58.3211,0.28,96,99,3.21,RU,1712010942
364,san antonio de pale,-1.4014,5.6325,28.97,84,92,5.25,GQ,1712010942
365,waingapu,-9.6567,120.2641,26.76,80,100,2.05,ID,1712010942
366,manakara,-22.1333,48.0167,23.4,91,92,3.34,MG,1712010942
367,dapa,9.7594,126.0531,27.21,79,24,5.38,PH,1712010942
368,khuzdar,27.7384,66.6434,18.16,15,84,1.49,PK,1712010943
369,livramento do brumado,-13.6431,-41.8406,27.98,65,100,0.76,BR,1712010943
370,kalaleh,37.3807,55.4916,9.66,72,44,1.03,IR,1712010943
371,katsuura,35.1333,140.3,13.34,66,1,3.07,JP,1712010944
372,zemio,5.0314,25.1361,24.09,72,97,1.5,CF,1712010944
373,nikel,69.4128,30.222,-6.9,99,76,2.17,RU,1712010944
374,rath,25.5833,79.5667,24.66,21,84,2.25,IN,1712010944
375,val-d'or,48.1002,-77.7828,3.05,52,40,4.12,CA,1712010944
376,varbilau,45.1833,25.95,19.01,44,38,1.65,RO,1712010945
377,pekan,3.4836,103.3996,26.06,89,93,0.19,MY,1712010945
378,cajamarca,-7.1638,-78.5003,17.04,67,100,4.63,PE,1712010945
379,lompoc,34.6391,-120.4579,21.55,64,0,5.66,US,1712010945
380,nianzishan,47.5167,122.8833,0.64,41,92,1.56,CN,1712010946
381,khamis mushait,18.3064,42.7292,16.58,67,0,3.09,SA,1712010946
382,fauske,67.2588,15.3918,-2.9,95,100,1.91,NO,1712010946
383,mata-utu,-13.2816,-176.1745,29.84,77,51,9.4,WF,1712010940
384,alofi,-19.0595,-169.9187,29.94,74,75,8.23,NU,1712010946
385,albertina,-22.2008,-46.6158,18.63,75,50,1.06,BR,1712010947
386,hanko,59.8333,22.95,6.58,97,100,6.71,FI,1712010947
387,cooper's town,26.8667,-77.5167,23.17,66,80,3.95,BS,1712010947
388,kundiawa,-6.0167,144.9667,18.99,98,100,0.38,PG,1712010947
389,chuguyevka,44.1653,133.8633,0.38,58,22,2.49,RU,1712010948
390,konarka,19.9,86.1167,27.22,78,54,8.39,IN,1712010948
391,mogadishu,2.0371,45.3438,28.36,77,19,3.89,SO,1712010729
392,pacific grove,36.6177,-121.9166,20.82,69,0,5.14,US,1712010948
393,essaouira,31.5125,-9.77,17.72,72,75,1.03,MA,1712010949
394,ciudad manuel doblado,20.7333,-101.9333,29.41,15,87,7.84,MX,1712010949
395,ban talat bueng,13.0715,101.0031,31.43,77,0,2.87,TH,1712010949
396,taquaritinga,-21.4061,-48.5047,24.35,54,40,1.77,BR,1712010782
397,ungsang-nodongjagu,42.3578,130.4622,3.89,48,15,1.15,KP,1712010950
398,cessnock,-32.8333,151.35,22.3,42,47,3.1,AU,1712010950
399,aswan,24.0934,32.907,28.61,30,0,3.09,EG,1712010950
400,mejit,10.2753,170.8646,27.16,70,100,8.24,MH,1712010950
401,broome,42.2506,-75.833,12.43,62,40,1.54,US,1712010951
402,zheleznodorozhnyy,55.7503,38.0042,13.23,75,65,4.02,RU,1712010951
403,nyurba,63.2842,118.3319,-16.44,100,100,1.11,RU,1712010951
404,taroudant,30.4703,-8.877,16.31,78,17,1.5,MA,1712010951
405,asau,46.4333,26.4,18.38,45,35,2.81,RO,1712010952
406,tralee,52.2704,-9.7026,7.47,91,81,1.43,IE,1712010952
407,pundong,-7.9522,110.3486,26.04,90,97,2.01,ID,1712010952
408,yasinya,48.2794,24.3604,13.0,61,98,2.28,UA,1712010921
409,inverness,57.4791,-4.224,7.66,88,100,5.14,GB,1712010953
410,chuarrancho,14.8217,-90.5086,25.88,41,4,4.61,GT,1712010953
411,camana,-16.6228,-72.7111,22.11,80,95,1.84,PE,1712010953
412,baise city,23.8997,106.6133,27.41,99,8,0.63,CN,1712010953
413,alakurtti,66.9672,30.3491,-10.23,83,100,4.79,RU,1712010953
414,shimo-furano,43.35,142.3833,-0.78,84,97,4.8,JP,1712010954
415,hami,42.8,93.45,8.45,49,100,4.03,CN,1712010954
416,wilmington island,32.0036,-80.9737,28.05,63,20,4.63,US,1712010954
417,meadow lakes,61.6247,-149.6011,6.27,56,20,3.13,US,1712010954
418,kununurra,-15.7667,128.7333,25.99,94,75,1.54,AU,1712010854
419,aginskoye,51.1,114.53,-3.18,49,50,9.74,RU,1712010955
420,porto novo,6.4965,2.6036,29.9,86,100,2.4,BJ,1712010955
421,san lawrenz,36.0553,14.204,16.67,77,54,10.39,MT,1712010955
422,n'zeto,-7.2312,12.8666,26.84,93,89,3.14,AO,1712010955
423,bei'an,24.5399,109.533,23.61,87,14,2.39,CN,1712010956
424,las tablas,7.7667,-80.2833,29.54,99,12,6.66,PA,1712010956
425,uige,-7.6087,15.0613,20.1,97,85,0.9,AO,1712010956
426,brookings,44.3114,-96.7984,3.95,86,100,5.14,US,1712010877
427,el calafate,-50.3408,-72.2768,8.2,79,100,3.25,AR,1712010956
428,al ghayzah,16.2079,52.176,25.29,71,49,1.76,YE,1712010957
429,ancud,-41.8697,-73.8203,10.43,70,86,0.86,CL,1712010721
430,metro,-5.1131,105.3067,24.13,94,51,1.59,ID,1712010957
431,myeik,12.4333,98.6,25.24,77,0,1.71,MM,1712010957
432,naze,28.3667,129.4833,19.51,74,89,6.75,JP,1712010958
433,dwarka,22.2394,68.9678,24.84,72,99,4.55,IN,1712010958
434,longquan,24.6719,102.1613,13.49,69,5,2.83,CN,1712010958
435,bikenibeu village,1.3673,173.1241,29.98,79,40,3.09,KI,1712010958
436,menaka,15.9182,2.4022,34.48,14,73,4.92,ML,1712010959
437,puerto aysen,-45.4,-72.7,7.44,100,100,1.83,CL,1712010694
438,morehead city,34.7229,-76.726,24.45,86,0,6.17,US,1712010959
439,hotan,37.0997,79.9269,9.46,36,99,4.05,CN,1712010959
440,potosi,-19.5836,-65.7531,14.48,51,40,1.54,BO,1712010858
441,axim,4.8699,-2.2405,27.74,86,99,1.29,GH,1712010960
442,bejaia,36.7559,5.0843,11.6,87,0,2.06,DZ,1712010960
443,sabang,5.8933,95.3214,28.51,74,14,1.14,ID,1712010961
444,mount gambier,-37.8333,140.7667,15.6,83,57,5.91,AU,1712010844
445,saint-marcel,49.1,1.45,9.67,92,0,6.17,FR,1712010961
446,alo,7.4178,6.7371,28.91,71,83,1.77,NG,1712010961
447,hobyo,5.3505,48.5268,28.43,78,18,6.3,SO,1712010961
448,yoichi,43.2039,140.7703,3.02,66,89,7.58,JP,1712010962
449,tegueste,28.5167,-16.3167,17.27,93,75,0.45,ES,1712010962
450,menominee,45.1078,-87.6143,3.27,41,75,4.63,US,1712010962
451,kasangulu,-4.5911,15.1708,26.52,84,78,0.92,CD,1712010963
452,candido mendes,-1.4467,-45.7167,25.18,93,24,1.4,BR,1712010963
453,thinadhoo,0.5333,72.9333,28.74,72,93,1.41,MV,1712010963
454,murghob,38.1702,73.9667,-11.67,49,16,2.72,TJ,1712010963
455,skelleftea,64.7507,20.9528,-3.8,74,100,4.63,SE,1712010964
456,san jose,37.3394,-121.895,23.8,33,0,4.02,US,1712010679
457,araripina,-7.5761,-40.4983,23.38,81,78,1.46,BR,1712010964
458,krasnyy chikoy,50.3643,108.7512,-3.56,73,62,0.95,RU,1712010964
459,toamasina,-18.1667,49.3833,24.33,92,97,5.39,MG,1712010965
460,trabzon,40.9167,39.8333,11.05,58,0,3.09,TR,1712010965
461,szarvas,46.8667,20.55,19.02,27,20,8.69,HU,1712010965
462,midvagur,62.0511,-7.1939,5.46,75,100,7.2,FO,1712010965
463,weihai,37.5017,122.1136,7.7,85,95,4.45,CN,1712010965
464,nguigmi,14.2495,13.1092,30.76,18,100,3.46,NE,1712010966
465,aykhal,66.0,111.5,-18.56,98,99,3.59,RU,1712010800
466,pacocha,-17.5833,-71.3333,20.83,84,88,1.35,PE,1712010966
467,conception bay south,47.4999,-52.9981,1.42,96,100,2.56,CA,1712010926
468,mehran,33.1222,46.1646,21.54,33,2,2.57,IR,1712010967
469,prestea,5.4327,-2.1428,25.81,92,98,1.69,GH,1712010967
470,arzgir,45.3728,44.2206,10.0,81,64,3.95,RU,1712010737
471,mhamid,29.82,-5.72,21.73,21,0,2.7,MA,1712010967
472,mongoumba,3.6415,18.5936,23.56,83,81,1.76,CF,1712010968
473,ghadamis,30.1337,9.5007,24.66,12,0,3.24,LY,1712010968
474,ilebo,-4.3167,20.5833,21.62,89,90,0.76,CD,1712010968
475,taksimo,56.3444,114.8794,-5.0,89,100,1.59,RU,1712010797
476,peshawar,34.008,71.5785,17.08,72,20,0.0,PK,1712010856
477,makhambet,47.6667,51.5833,10.34,61,19,1.91,KZ,1712010969
478,papao,-17.75,-149.55,30.82,72,66,9.41,PF,1712010969
479,bonny,4.4522,7.1681,28.63,69,100,0.71,NG,1712010969
480,wendell,35.781,-78.3697,28.12,59,95,2.92,US,1712010969
481,makubetsu,45.3714,141.8211,2.39,75,96,7.15,JP,1712010969
482,dabat,12.9842,37.765,16.47,20,99,1.96,ET,1712010970
483,hadibu,12.65,54.0333,26.0,79,12,2.95,YE,1712010970
484,staryye ozinki,51.1786,49.6769,11.06,81,100,3.82,RU,1712010970
485,geraldton,-28.7667,114.6,21.23,52,52,1.54,AU,1712010970
486,crucecita,-28.95,-58.9833,21.17,90,51,6.01,AR,1712010971
487,ejea de los caballeros,42.1263,-1.1372,8.12,67,35,0.83,ES,1712010971
488,gadzhiyevo,69.2551,33.3362,-7.56,73,99,5.99,RU,1712010796
489,takab,36.4009,47.1133,7.23,56,4,1.49,IR,1712010971
490,levuka,50.1834,-105.4011,10.84,45,7,7.48,CA,1712010971
491,dombarovskiy,50.7587,59.5386,3.89,100,96,3.13,RU,1712010972
492,santana do livramento,-30.8908,-55.5328,15.93,96,100,5.66,BR,1712010781
493,smithers,54.7804,-127.1743,6.18,65,100,5.14,CA,1712010824
494,ouadda,8.0777,22.4007,23.16,58,86,0.83,CF,1712010972
495,cabo san lucas,22.8909,-109.9124,24.78,46,20,7.2,MX,1712010285
496,sabha,27.0377,14.4283,24.49,14,0,2.33,LY,1712010973
497,fada,9.5667,8.3,24.71,69,100,0.5,NG,1712010973
498,illizi,26.4833,8.4667,22.89,9,26,1.97,DZ,1712010973
499,pala,9.3642,14.9046,30.1,15,100,1.35,TD,1712010973
500,kas,36.2018,29.6377,20.85,58,3,1.71,TR,1712010974
501,omutinskiy,56.4745,67.6709,1.14,84,100,4.41,RU,1712010974
502,ratnagiri,16.9833,73.3,24.86,76,38,2.97,IN,1712010974
503,sawa sawa,-4.4717,39.4846,27.0,82,49,4.36,KE,1712010974
504,port alberni,49.2413,-124.8028,16.63,67,100,2.68,CA,1712010975
505,bryne,58.7354,5.6477,8.32,77,0,0.0,NO,1712010975
506,marshall,34.3834,-86.3333,23.17,82,40,3.09,US,1712010738
507,tshikapa,-6.4167,20.8,22.29,88,99,0.99,CD,1712010975
508,nantucket,41.2835,-70.0995,8.06,82,100,2.57,US,1712010976
509,bikin,46.8161,134.26,0.25,64,12,1.66,RU,1712010737
510,sisimiut,66.9395,-53.6735,-3.8,83,95,2.74,GL,1712010976
511,bernay,49.1667,0.6667,8.84,87,86,3.13,FR,1712010976
512,corner brook,48.9667,-57.9484,3.09,96,97,1.52,CA,1712010977
513,goundam,16.4145,-3.6708,33.07,14,52,2.74,ML,1712010977
514,turmalina,-17.2856,-42.73,21.37,95,85,1.18,BR,1712010977
515,rajapolah,-7.221,108.1896,22.52,98,92,0.61,ID,1712010977
516,ballina,-28.8667,153.5667,24.32,71,5,1.81,AU,1712010978
517,bhisho,-32.8472,27.4422,17.2,93,54,1.55,ZA,1712010978
518,bangkalan,-7.0455,112.7351,25.97,88,73,1.6,ID,1712010978
519,egilsstadir,65.2653,-14.3948,-7.05,93,40,3.09,IS,1712010978
520,ha'il,27.5219,41.6907,18.01,59,0,2.06,SA,1712010979
521,howrah,22.5892,88.3103,29.0,84,20,2.06,IN,1712010979
522,vanino,49.0869,140.2543,-0.6,66,75,4.14,RU,1712010737
523,itagiba,-14.2836,-39.8428,24.88,88,93,1.87,BR,1712010979
524,raton,36.9034,-104.4391,9.19,61,100,5.14,US,1712010979
525,carhuamayo,-10.9167,-76.0333,5.32,91,93,2.35,PE,1712010980
526,revda,56.801,59.9303,0.48,92,100,3.51,RU,1712010980
527,gualeguay,-33.1416,-59.3097,13.83,91,95,3.04,AR,1712010980
528,antonio enes,-16.2325,39.9086,24.35,88,38,2.32,MZ,1712010980
529,mayfield,36.7417,-88.6367,23.97,73,100,4.59,US,1712010981
530,mandalgovi,45.7625,106.2708,-0.16,43,84,3.94,MN,1712010981
531,taitung city,22.7583,121.1444,20.15,88,20,2.06,TW,1712010981
532,coahuayana de hidalgo,18.7,-103.6583,28.87,53,66,2.73,MX,1712010981
533,berkane,34.9084,-2.3461,12.82,71,18,1.66,MA,1712010982
534,ruovesi,61.9858,24.0571,0.35,94,100,3.41,FI,1712010684
535,picota,-6.9197,-76.3304,24.27,99,100,0.28,PE,1712010982
536,beau vallon,-20.4189,57.6953,25.13,88,75,7.72,MU,1712010982
537,nizhneudinsk,54.9076,99.0276,-7.66,97,92,0.87,RU,1712010737
538,al mahwit,15.4701,43.5448,17.27,68,94,0.76,YE,1712010983
539,losal,27.4,74.9167,20.65,23,95,1.88,IN,1712010983
540,rosarito,32.3333,-117.0333,21.46,60,9,6.4,MX,1712010983
541,greenville,35.6127,-77.3663,27.3,45,0,3.09,US,1712010665
542,carutapera,-1.195,-46.02,25.76,90,26,2.21,BR,1712010984
543,sarangani,5.4033,125.4636,27.49,77,18,10.29,PH,1712010794
544,mapleton,40.1302,-111.5785,10.06,63,75,2.06,US,1712010984
545,kristiansund,63.1115,7.732,3.03,87,100,8.23,NO,1712010984
546,labrador city,52.9463,-66.9114,-2.68,60,75,3.6,CA,1712010985
547,kajaani,64.2273,27.7285,-2.97,80,100,4.63,FI,1712010985
548,la passe,45.5549,-0.8967,10.55,80,64,9.39,FR,1712010985
549,sovetskaya gavan',48.9723,140.2878,-0.5,94,67,4.97,RU,1712010985
550,margate,51.3813,1.3862,10.17,85,5,3.13,GB,1712010974
551,marine corps base hawaii - mcbh,21.4453,-157.7513,26.98,74,75,4.63,US,1712010986
552,opuwo,-18.0607,13.84,21.62,44,100,1.31,NA,1712010986
553,lusaka,-15.4067,28.2871,17.43,78,73,1.79,ZM,1712010986
554,yelwa,8.8333,9.6333,30.65,50,83,2.91,NG,1712010986
555,kupang,-10.1667,123.5833,27.32,100,75,0.51,ID,1712010987
556,makushino,55.2103,67.2442,-0.69,96,88,4.25,RU,1712010987
557,toliara,-23.35,43.6667,26.78,61,70,6.03,MG,1712010987
558,oelwein,42.6733,-91.9135,5.33,97,100,5.81,US,1712010988
559,souillac,-20.5167,57.5167,25.21,88,75,7.72,MU,1712010988
560,haflong,25.1833,93.0333,19.61,90,11,1.74,IN,1712010988
561,es castell,39.8795,4.2854,14.38,77,0,5.14,ES,1712010988
562,sao vicente,-23.9631,-46.3919,26.1,26,22,2.76,BR,1712010844
563,tateyama,34.9833,139.8667,12.83,63,22,3.85,JP,1712010989
564,kyaikkami,16.08,97.5675,27.6,67,0,2.84,MM,1712010989
565,dhidhdhoo,6.8833,73.1,28.61,72,65,0.64,MV,1712010989
566,sardinata,8.0829,-72.8007,28.82,90,90,0.66,CO,1712010989
567,quepos,9.4236,-84.1652,29.18,60,5,1.97,CR,1712010829
568,arteaga,18.4667,-102.4167,27.7,32,66,3.99,MX,1712010990
569,pangoa,-12.1167,-73.0,23.7,86,65,0.55,PE,1712010990
570,palikir - national government center,6.9248,158.1611,29.41,74,75,5.14,FM,1712010990
571,leh,34.1667,77.5833,-12.04,82,64,0.94,IN,1712010990
572,san marcos de colon,13.4333,-86.8,33.85,23,1,1.83,HN,1712010991
573,adrar,20.5022,-10.0711,28.31,19,10,5.65,MR,1712010991
574,letterkenny,54.95,-7.7333,6.31,89,95,2.75,IE,1712010991
575,ghormach,35.7306,63.7826,10.7,53,68,0.96,AF,1712010991
576,pelabuhanratu,-6.9875,106.5514,25.93,90,64,1.62,ID,1712010991
577,paramonga,-10.6667,-77.8333,22.37,85,100,3.6,PE,1712010992
