City_ID,City,Lat,Lng,Max Temp,Humidity,Cloudiness,Wind Speed,Country,Date
0,kievka,50.2619,71.5514,1.51,79,93,3.42,KZ,1712020447
1,lagos,6.5833,3.75,26.83,88,44,1.17,NG,1712020110
2,san antonio de pale,-1.4014,5.6325,28.83,78,62,3.75,GQ,1712020447
3,margaret river,-33.95,115.0667,14.96,60,0,5.51,AU,1712020448
4,edinburgh of the seven seas,-37.0676,-12.3116,18.61,93,31,7.83,SH,1712020448
5,bethel,41.3712,-73.414,9.84,67,100,1.54,US,1712020448
6,laojunmiao,39.8333,97.7333,3.45,55,26,0.45,CN,1712020448
7,sisimiut,66.9395,-53.6735,-4.2,82,96,3.04,GL,1712020449
8,ushuaia,-54.8,-68.3,5.05,92,100,3.93,AR,1712020275
9,itaituba,-4.2761,-55.9836,25.05,93,97,0.58,BR,1712020261
10,port elizabeth,-33.918,25.5701,17.95,73,72,0.45,ZA,1712020362
11,la seu d'urgell,42.3588,1.4614,5.21,93,38,1.57,ES,1712020450
12,yangshuo,24.7808,110.4897,26.81,78,85,2.8,CN,1712020450
13,waitangi,-43.9535,-176.5597,14.34,81,82,0.89,NZ,1712020451
14,ilulissat,69.2167,-51.1,-4.99,86,100,0.0,GL,1712020451
15,oppdal,62.5943,9.6912,-1.3,98,100,2.25,NO,1712020451
16,grytviken,-54.2811,-36.5092,1.04,84,23,4.59,GS,1712020452
17,rongelap,11.1635,166.8941,27.24,73,100,6.87,MH,1712020452
18,baniachang,24.5167,91.3667,24.23,93,33,2.08,BD,1712020452
19,saldanha,-33.0117,17.9442,15.44,90,64,3.81,ZA,1712020453
20,port augusta,-32.5,137.7667,19.6,56,100,6.94,AU,1712020453
21,rampur,28.8167,79.0333,18.97,33,26,3.62,IN,1712020453
22,port-aux-francais,-49.35,70.2167,7.0,78,100,8.42,TF,1712020453
23,sebastopol,44.6,33.5333,15.25,52,100,6.06,UA,1712020264
24,puerto natales,-51.7236,-72.4875,6.99,91,100,2.1,CL,1712020253
25,ghat,24.9647,10.1728,24.52,10,0,0.8,LY,1712020454
26,rockport,28.0206,-97.0544,24.44,80,75,5.66,US,1712020455
27,okha,53.5739,142.9478,-1.27,84,100,4.74,RU,1712020455
28,gadzhiyevo,69.2551,33.3362,-6.66,65,100,8.11,RU,1712020455
29,tucuma,-0.1833,-50.05,25.46,92,100,2.22,BR,1712020456
30,tiksi,71.6872,128.8694,-9.06,87,100,3.61,RU,1712020456
31,oriximina,-1.7656,-55.8661,25.28,92,87,1.26,BR,1712020456
32,adamstown,-25.066,-130.1015,24.31,77,91,8.33,PN,1712020193
33,khulm,36.6974,67.6983,14.43,40,100,5.45,AF,1712020457
34,kalianget,-7.05,113.9333,28.54,75,59,0.86,ID,1712020457
35,masterton,-40.9597,175.6575,16.6,50,61,1.79,NZ,1712020458
36,trnava,48.3774,17.5872,9.27,85,100,7.22,SK,1712020458
37,lihue,21.9789,-159.3672,26.58,84,100,4.12,US,1712020215
38,iskateley,67.6803,53.1512,-9.43,87,100,4.92,RU,1712020458
39,conception bay south,47.4999,-52.9981,0.86,96,100,3.87,CA,1712020301
40,mana,5.6592,-53.7767,26.39,84,68,2.92,GF,1712020459
41,chernyshevskiy,63.0128,112.4714,-3.99,94,96,2.09,RU,1712020460
42,iqaluit,63.7506,-68.5145,0.39,86,100,12.07,CA,1712020460
43,kapuskasing,49.4169,-82.4331,-3.75,84,25,2.2,CA,1712020460
44,touros,-5.1989,-35.4608,26.72,83,100,3.49,BR,1712020446
45,awjilah,29.1081,21.2869,23.65,28,0,2.96,LY,1712020462
46,ust-nera,64.5667,143.2,-11.07,77,14,1.12,RU,1712020462
47,papatowai,-46.5619,169.4708,15.25,63,61,2.29,NZ,1712020463
48,nar'yan-mar,67.6713,53.087,-9.38,87,100,4.92,RU,1712020455
49,ostersund,63.1792,14.6357,-2.75,74,100,3.09,SE,1712020464
50,dalaba,10.7,-12.25,20.4,74,70,1.12,GN,1712020464
51,hatava,53.7829,27.6407,12.03,78,100,3.26,BY,1712020465
52,lugovoy,42.9472,72.7644,5.6,58,73,1.66,KZ,1712020465
53,port alfred,-33.5906,26.891,18.2,91,100,8.13,ZA,1712020465
54,lebu,-37.6167,-73.65,11.03,80,98,1.4,CL,1712020466
55,thompson,55.7435,-97.8558,-1.92,94,100,3.88,CA,1712020438
56,kaoma,-14.7833,24.8,18.33,86,100,1.69,ZM,1712020466
57,basco,20.4487,121.9702,26.97,82,100,9.32,PH,1712020467
58,thunder bay,48.4001,-89.3168,-2.98,88,9,2.11,CA,1712020292
59,labrador city,52.9463,-66.9114,-12.03,97,73,1.63,CA,1712020278
60,ikwiriri,-7.9562,38.9716,23.05,98,100,1.26,TZ,1712020467
61,senanga,-16.1167,23.2667,20.03,67,85,1.8,ZM,1712020468
62,mermoz boabab,14.7065,-17.4758,21.31,85,0,9.0,SN,1712020468
63,aswan,24.0934,32.907,24.56,35,0,3.76,EG,1712020469
64,beruniy,41.6911,60.7525,7.98,57,0,2.06,UZ,1712020469
65,nadym,65.5333,72.5167,-16.62,98,18,3.44,RU,1712020470
66,queenstown,-31.8976,26.8753,15.53,80,12,2.17,ZA,1712019966
67,bredasdorp,-34.5322,20.0403,16.79,83,7,5.81,ZA,1712020470
68,aljustrel,37.8776,-8.1652,8.99,88,100,2.83,PT,1712020471
69,hawaiian paradise park,19.5933,-154.9731,24.73,89,75,5.66,US,1712020471
70,kolonia town,6.964,158.206,32.06,70,100,3.6,FM,1712020471
71,vorgashor,67.5833,63.95,-13.53,95,100,2.4,RU,1712020472
72,yellowknife,62.456,-114.3525,-2.55,80,100,3.13,CA,1712020323
73,roberval,48.5168,-72.2324,-1.86,71,15,4.22,CA,1712020312
74,jamestown,42.097,-79.2353,8.34,69,0,3.09,US,1712019964
75,altenstadt,50.2833,8.95,9.62,89,30,3.85,DE,1712020473
76,margate,51.3813,1.3862,10.5,85,76,3.58,GB,1712020454
77,cabugao,17.7931,120.4578,31.61,61,2,3.56,PH,1712020474
78,inhambane,-23.865,35.3833,23.05,89,29,3.02,MZ,1712020474
79,invercargill,-46.4,168.35,17.23,67,42,2.24,NZ,1712020377
80,bilibino,68.0546,166.4372,-16.62,61,81,1.02,RU,1712020474
81,alice springs,-23.7,133.8833,25.68,41,40,7.72,AU,1712020475
82,petropavlovsk-kamchatsky,53.0452,158.6483,2.33,81,0,6.71,RU,1712020475
83,concepcion del uruguay,-32.4825,-58.2372,14.99,94,100,0.89,AR,1712020428
84,ribeira grande,38.5167,-28.7,16.54,85,12,10.28,PT,1712020476
85,port douglas,-16.4833,145.4667,27.78,74,100,5.05,AU,1712020476
86,belmonte,-15.8631,-38.8828,25.86,89,100,3.17,BR,1712020477
87,vila franca do campo,37.7167,-25.4333,16.23,85,20,8.34,PT,1712020477
88,viqueque,-8.8673,126.3658,28.99,75,95,1.5,TL,1712020477
89,albany,42.6001,-73.9662,10.51,65,92,0.45,US,1712020255
90,georgetown,5.4112,100.3354,28.96,89,20,0.0,MY,1712020478
91,pisco,-13.7,-76.2167,22.03,78,0,5.14,PE,1712020479
92,naha,26.2125,127.6811,24.15,92,75,6.69,JP,1712020479
93,pointe-noire,-4.7761,11.8635,27.04,100,20,1.03,CG,1712020479
94,naze,28.3667,129.4833,19.79,75,100,6.29,JP,1712020479
95,colonia,50.9333,6.95,9.98,87,0,3.09,DE,1712020198
96,enewetak,11.3474,162.3373,27.29,73,100,7.36,MH,1712020480
97,decorah,43.3033,-91.7857,2.51,100,100,5.66,US,1712020241
98,blackmans bay,-43.0167,147.3167,14.85,95,100,1.4,AU,1712020481
99,punta arenas,-53.15,-70.9167,8.06,71,75,4.63,CL,1712020242
100,petropavlovka,50.6114,105.3196,-0.87,43,47,2.17,RU,1712020481
101,darwin,-12.4611,130.8418,30.03,79,75,3.6,AU,1712020310
102,tidjikja,18.5564,-11.4271,30.83,19,5,5.24,MR,1712020482
103,berdigestyakh,62.0989,126.6992,-8.71,90,93,1.25,RU,1712020482
104,college,64.8569,-147.8028,7.18,36,75,0.0,US,1712020265
105,genhe,50.7833,121.5167,-4.41,68,100,1.3,CN,1712020483
106,atafu village,-8.5421,-172.5159,29.94,70,48,5.26,TK,1712020484
107,panaba,21.2833,-88.2667,28.31,57,6,8.27,MX,1712020484
108,el rosal,4.8531,-74.26,12.31,92,97,1.07,CO,1712020484
109,mount gambier,-37.8333,140.7667,15.82,75,94,6.21,AU,1712020484
110,kununurra,-15.7667,128.7333,28.99,84,15,1.54,AU,1712020485
111,lexington,37.9887,-84.4777,22.62,68,0,5.14,US,1712020410
112,mohr,54.3528,9.7167,8.97,97,100,9.77,DE,1712020485
113,makar'yev,57.8797,43.8069,7.23,95,100,3.82,RU,1712020486
114,waspan,14.7419,-83.9717,25.83,79,3,3.49,NI,1712020486
115,daru,-9.0763,143.2092,26.14,89,100,2.61,PG,1712020486
116,port saint john's,-31.6229,29.5448,22.09,90,98,3.64,ZA,1712020487
117,puerto aysen,-45.4,-72.7,7.38,99,100,1.98,CL,1712020309
118,rozhniv,48.366,25.2258,14.98,51,100,2.46,UA,1712020487
119,novoishimskiy,53.1981,66.7694,0.95,94,99,3.83,KZ,1712020488
120,andergrove,-21.0833,149.1833,29.8,75,13,5.61,AU,1712020488
121,ardatov,55.2421,43.097,8.81,87,100,5.91,RU,1712020488
122,lusambo,-4.9667,23.45,21.88,96,100,0.67,CD,1712020488
123,magadan,59.5667,150.8,-2.77,66,26,3.76,RU,1712020489
124,tamanrasset,22.785,5.5228,18.95,10,0,3.09,DZ,1712020489
125,brookings,44.3114,-96.7984,2.88,88,100,2.57,US,1712020342
126,whitehorse,60.7161,-135.0538,3.43,41,100,6.69,CA,1712019681
127,port mathurin,-19.6833,63.4167,26.22,84,47,6.5,MU,1712020490
128,waliso,8.5333,37.9833,17.54,74,100,1.37,ET,1712020490
129,longyearbyen,78.2186,15.6401,-17.09,78,75,3.09,SJ,1712020490
130,businga,3.3333,20.8833,22.42,92,98,0.74,CD,1712020491
131,ancud,-41.8697,-73.8203,10.19,73,100,2.13,CL,1712020491
132,el galpon,-25.3807,-64.6526,18.2,95,100,2.24,AR,1712020491
133,ulety,51.3572,112.4849,-0.6,32,4,6.79,RU,1712020492
134,fort mcmurray,56.7268,-111.381,6.18,50,0,3.27,CA,1712020312
135,rantepao,-2.9701,119.8978,24.43,84,96,0.29,ID,1712020492
136,chaman,30.9236,66.4512,13.78,26,94,0.64,PK,1712020493
137,karak city,31.1637,35.762,18.03,43,98,3.97,JO,1712020493
138,kudahuvadhoo,2.6708,72.8944,28.91,71,95,2.19,MV,1712020493
139,ambon,-3.6954,128.1814,31.08,74,40,1.03,ID,1712020477
140,kapa'a,22.0752,-159.319,26.99,83,100,4.12,US,1712020494
141,lorengau,-2.0226,147.2712,28.81,82,64,5.05,PG,1712020494
142,piacabucu,-10.4056,-36.4344,27.19,86,100,3.11,BR,1712020494
143,belyy yar,53.6039,91.3903,1.94,93,0,2.0,RU,1712020495
144,keflavik,64.0049,-22.5624,-3.76,63,0,11.32,IS,1712020495
145,malanje,-9.5402,16.341,18.23,97,100,1.34,AO,1712020495
146,maceio,-9.6658,-35.7353,26.69,94,20,2.06,BR,1712020496
147,saipan,15.1355,145.701,31.39,1,40,9.26,MP,1712020496
148,jan kempdorp,-27.9225,24.8305,18.93,63,88,1.68,ZA,1712020496
149,logten,56.2746,10.3118,7.3,96,100,5.14,DK,1712020496
150,flying fish cove,-10.4217,105.6791,27.82,78,100,5.66,CX,1712020497
151,dryden,49.7833,-92.7503,-3.62,93,98,1.5,CA,1712020497
152,dragalina,44.4333,27.3167,18.75,49,34,3.43,RO,1712020497
153,caleta de carquin,-11.0925,-77.6267,21.88,85,100,3.39,PE,1712020497
154,jinka,5.65,36.65,18.88,74,77,0.38,ET,1712020498
155,san pedro pochutla,15.7333,-96.4667,28.84,66,2,3.69,MX,1712020498
156,basoko,1.2391,23.616,22.54,86,100,1.06,CD,1712020498
157,sitka,57.0531,-135.33,8.94,61,100,4.63,US,1712020498
158,labasa,-16.4167,179.3833,30.92,68,100,4.94,FJ,1712020499
159,bollnas,61.3482,16.3946,-0.85,93,100,3.85,SE,1712020499
160,west island,-12.1568,96.8225,27.99,74,40,5.66,CC,1712020500
161,weining,26.85,104.2333,13.93,58,4,1.51,CN,1712020500
162,howrah,22.5892,88.3103,27.0,89,20,0.0,IN,1712020500
163,piotrkow trybunalski,51.4055,19.7032,12.32,86,100,6.24,PL,1712020241
164,solone,48.2081,34.8721,11.48,72,97,4.06,UA,1712020501
165,opuwo,-18.0607,13.84,22.21,42,100,1.64,NA,1712020501
166,badger,64.8,-147.5333,7.14,34,0,0.0,US,1712020501
167,stanley,54.868,-1.6985,2.66,98,20,0.0,GB,1712020216
168,sydney mines,46.2367,-60.2177,1.14,81,93,3.13,CA,1712020279
169,ponta delgada,37.7333,-25.6667,16.4,77,20,10.8,PT,1712020502
170,nikolayevsk-on-amure,53.1406,140.73,-0.82,87,100,2.48,RU,1712020502
171,lido di ostia,41.7321,12.2765,14.95,44,40,4.12,IT,1712020503
172,mossel bay,-34.1831,22.146,17.55,70,0,6.94,ZA,1712020503
173,nema,57.5067,50.5011,2.4,99,100,5.02,RU,1712020503
174,punta del este,-34.9667,-54.95,17.71,76,75,3.09,UY,1712020504
175,vadso,70.0744,29.7487,-7.51,73,44,7.72,NO,1712020504
176,katsuura,35.1333,140.3,14.89,60,49,2.26,JP,1712020504
177,avarua,-21.2078,-159.775,29.03,70,75,3.09,CK,1712020505
178,tofol,5.3248,163.0078,28.88,84,100,8.23,FM,1712020505
179,carutapera,-1.195,-46.02,25.71,92,94,1.93,BR,1712020505
180,igrim,63.1906,64.4162,-12.52,95,100,2.01,RU,1712020506
181,micheweni,-4.9667,39.8333,26.7,86,100,4.64,TZ,1712020506
182,puerto ayora,-0.7393,-90.3518,25.86,92,100,1.79,EC,1712020506
183,talnakh,69.4865,88.3972,-14.6,95,100,6.78,RU,1712020506
184,rokycany,49.7427,13.5946,7.92,86,100,16.09,CZ,1712020507
185,east london,-33.0153,27.9116,19.9,94,3,6.8,ZA,1712020507
186,ta`u,-14.2336,-169.5144,29.28,73,22,9.54,AS,1712020508
187,pimentel,-6.8367,-79.9342,24.16,78,75,6.69,PE,1712020309
188,cavan,53.9908,-7.3606,5.32,96,100,1.43,IE,1712020508
189,anadyr,64.75,177.4833,-15.72,71,40,5.0,RU,1712020509
190,inarajan village,13.2736,144.7484,32.54,81,100,8.81,GU,1712020509
191,klaksvik,62.2266,-6.589,4.51,73,100,13.04,FO,1712020509
192,new norfolk,-42.7826,147.0587,15.51,96,100,0.97,AU,1712020510
193,buala,-8.145,159.5921,29.07,72,100,1.09,SB,1712020510
194,vail,32.0479,-110.712,9.95,88,98,0.89,US,1712020510
195,port lincoln,-34.7333,135.8667,16.92,64,100,7.5,AU,1712020511
196,east stroudsburg,40.9995,-75.1813,9.95,86,100,1.09,US,1712020384
197,vallenar,-28.5708,-70.7581,22.98,53,0,0.81,CL,1712020511
198,chonchi,-42.6128,-73.8092,10.62,87,100,0.92,CL,1712020512
199,aleksandrovsk,59.158,57.5624,3.22,99,100,4.24,RU,1712020512
200,zhigalovo,54.8097,105.1578,-6.63,77,55,2.56,RU,1712020512
201,mumbwa,-14.9783,27.0619,17.59,84,74,2.46,ZM,1712020512
202,preobrazheniye,42.9019,133.9064,4.43,47,2,3.31,RU,1712020513
203,glen innes,-29.7333,151.7333,22.5,51,44,5.1,AU,1712020513
204,rio grande,-32.035,-52.0986,19.72,86,100,9.42,BR,1712020513
205,peace river,56.2501,-117.286,9.93,28,94,0.4,CA,1712020254
206,yigo village,13.5361,144.8886,31.62,67,75,9.26,GU,1712020514
207,kovancilar,38.7214,39.8681,12.29,52,10,1.79,TR,1712020514
208,ola,59.5833,151.2833,-2.96,64,57,5.0,RU,1712020514
209,khonsa,27.0167,95.5667,17.77,83,2,1.6,IN,1712020515
210,severo-yeniseyskiy,60.3725,93.0408,-11.9,89,100,1.34,RU,1712020515
211,karratha,-20.7377,116.8463,33.15,28,0,9.49,AU,1712020515
212,houghton,47.1219,-88.569,0.46,84,0,3.6,US,1712020516
213,novaya tavolzhanka,50.3512,36.8298,14.68,73,8,3.42,RU,1712020516
214,bikenibeu village,1.3673,173.1241,28.16,78,17,4.91,KI,1712020517
215,udachny,66.4167,112.4,-16.63,89,98,3.41,RU,1712020248
216,sarkand,45.41,79.9186,4.04,48,0,2.23,KZ,1712020517
217,funafuti,-8.5243,179.1942,32.0,74,75,3.09,TV,1712020517
218,veraval,20.9,70.3667,24.13,58,100,4.92,IN,1712020518
219,yangambi,0.8102,24.4336,21.24,94,100,0.91,CD,1712020518
220,caslav,49.911,15.3897,9.84,66,75,8.75,CZ,1712020519
221,kyshtovka,56.555,76.6271,0.19,91,100,4.02,RU,1712020520
222,cabedelo,-6.9811,-34.8339,27.37,84,100,4.5,BR,1712020468
223,aasiaat,68.7098,-52.8699,-7.21,89,81,2.65,GL,1712020520
224,tayu,-6.5397,111.0518,28.16,81,40,2.88,ID,1712020520
225,muisne,0.6,-80.0333,25.35,91,73,3.04,EC,1712020521
226,east ballina,-28.8667,153.5833,27.67,65,0,3.1,AU,1712020521
227,bada,51.392,109.8717,-3.19,75,100,4.88,RU,1712020521
228,archangelos,36.2149,28.1149,19.06,60,8,3.53,GR,1712020521
229,praia da vitoria,38.7333,-27.0667,16.53,85,1,7.52,PT,1712020522
230,luorong,24.4058,109.6086,27.71,73,21,6.76,CN,1712020522
231,erenhot,43.6475,111.9767,5.07,54,100,4.0,CN,1712020524
232,tadine,-21.55,167.8833,26.78,64,18,5.23,NC,1712020524
233,wailua homesteads,22.0669,-159.378,26.24,84,100,4.12,US,1712020525
234,ekibastuz,51.6667,75.3667,3.63,78,100,6.41,KZ,1712020525
235,wainwright,52.839,-110.8572,7.6,34,52,4.79,CA,1712020414
236,aleksandrovsk-sakhalinskiy,50.8975,142.1561,-0.24,93,100,6.41,RU,1712020526
237,richards bay,-28.783,32.0377,21.91,76,94,4.68,ZA,1712020526
238,khorixas,-20.3667,14.9667,23.36,39,97,0.35,NA,1712020526
239,puerto real,36.5282,-6.1901,11.09,93,0,2.57,ES,1712020527
240,horta,38.5333,-28.6333,16.12,85,27,10.28,PT,1712020527
241,black mountain,35.6179,-82.3212,19.92,75,100,1.59,US,1712020253
242,cambria,35.5641,-121.0808,22.41,79,0,2.68,US,1712020528
243,smirnykh,49.75,142.8333,1.16,80,100,3.83,RU,1712020528
244,mbandaka,0.0487,18.2603,22.67,88,92,1.11,CD,1712020529
245,poronaysk,49.2167,143.1167,1.86,63,65,3.8,RU,1712020529
246,antsiranana,-12.2787,49.2917,25.21,89,52,4.22,MG,1712020529
247,ebon,4.582,168.6964,28.12,80,100,8.01,MH,1712020529
248,hithadhoo,-0.6,73.0833,29.21,72,100,1.83,MV,1712020530
249,crane,31.3974,-102.3501,19.45,16,2,11.82,US,1712020530
250,tura,25.5198,90.2201,22.73,72,0,2.51,IN,1712020530
251,bloemfontein,-29.1211,26.214,17.14,60,58,2.46,ZA,1712020531
252,sesimbra,38.4445,-9.1015,14.92,84,100,6.04,PT,1712020531
253,hojai,26.0,92.8667,22.88,68,0,1.21,IN,1712020531
254,montevideo,-34.8335,-56.1674,16.84,67,75,3.6,UY,1712020052
255,vodnyy,63.5046,53.4095,0.23,100,100,5.82,RU,1712020532
256,papao,-17.75,-149.55,31.82,69,6,9.09,PF,1712020287
257,utrik,11.2278,169.8474,27.59,71,100,6.3,MH,1712020533
258,brokopondo,4.75,-55.1667,27.36,70,71,4.74,SR,1712020534
259,santa cruz,-17.8,-63.1667,26.7,83,100,3.6,BO,1712020485
260,sinazongwe,-17.2614,27.4618,23.32,58,93,2.0,ZM,1712020536
261,diofior,14.1833,-16.6667,23.24,49,0,5.62,SN,1712020538
262,jinchang,38.4953,102.1739,4.53,94,100,5.16,CN,1712020539
263,afaahiti,-17.75,-149.2833,30.93,69,12,7.97,PF,1712020539
264,battagram,34.6772,73.0233,11.89,51,0,2.92,PK,1712020541
265,suileng,47.25,127.0833,3.37,36,97,2.94,CN,1712020541
266,coquimbo,-29.9533,-71.3436,18.43,67,5,1.32,CL,1712020325
267,coahuayana de hidalgo,18.7,-103.6583,24.05,75,100,1.76,MX,1712020541
268,bardai,11.65,7.2333,27.48,16,66,1.27,NG,1712020542
269,uturoa,-16.7333,-151.4333,28.26,75,100,8.24,PF,1712020543
270,kingscliff,-28.2667,153.5667,28.3,66,0,5.66,AU,1712020544
271,tromso,69.6496,18.957,-9.99,85,75,1.54,NO,1712020281
272,mingguang,32.7802,117.9638,17.7,97,100,3.21,CN,1712020383
273,balabac,7.9868,117.0645,29.09,70,63,6.03,PH,1712020545
274,karapinar,37.716,33.5506,15.22,41,0,1.55,TR,1712020546
275,nantucket,41.2835,-70.0995,6.12,92,0,0.0,US,1712020305
276,angaur state,6.906,134.13,28.15,79,96,7.48,PW,1712020547
277,mwinilunga,-11.7358,24.4293,17.38,99,100,1.23,ZM,1712020547
278,hilo,19.7297,-155.09,25.71,85,75,5.66,US,1712020548
279,chirilagua,13.2203,-88.1386,25.37,75,0,2.49,SV,1712020548
280,saint-louis du nord,19.9333,-72.7167,24.71,70,5,7.69,HT,1712020548
281,cabo san lucas,22.8909,-109.9124,22.64,59,20,4.47,MX,1712020549
282,okhotsk,59.3833,143.3,-4.05,69,20,7.63,RU,1712020549
283,malango,-2.9627,119.9001,24.37,85,96,0.28,ID,1712020549
284,baiti,13.745,-14.7482,28.81,25,0,3.15,SN,1712020549
285,san patricio,28.017,-97.5169,27.05,82,100,7.72,US,1712020550
286,la passe,45.5549,-0.8967,10.55,83,0,7.84,FR,1712020550
287,isiro,2.7739,27.616,20.61,90,100,0.87,CD,1712020551
288,cinarli,41.4723,46.9156,10.09,71,47,1.91,AZ,1712020551
289,kailua-kona,19.6406,-155.9956,26.98,85,75,4.12,US,1712020551
290,lagunas,-5.2269,-75.6753,24.01,98,100,1.05,PE,1712020552
291,saynshand,44.8824,110.1163,4.94,55,77,1.67,MN,1712020552
292,qaqortoq,60.7167,-46.0333,-6.92,85,79,2.79,GL,1712020394
293,trairi,-3.2778,-39.2689,25.71,86,100,1.5,BR,1712020312
294,isafjordur,66.0755,-23.124,-3.85,76,99,10.9,IS,1712020553
295,ugoofaaru,5.6667,73.0,28.45,72,98,1.43,MV,1712020553
296,dudinka,69.4058,86.1778,-15.18,90,100,6.26,RU,1712020553
297,tolanaro,-25.0319,46.9987,22.64,81,100,6.68,MG,1712020554
298,inyonga,-6.7167,32.0667,17.72,95,100,1.57,TZ,1712020554
299,san juan de miraflores,-12.1629,-76.9635,24.54,69,95,2.94,PE,1712020554
300,luang namtha,20.9497,101.4011,27.75,33,0,0.74,LA,1712020555
301,yeppoon,-23.1333,150.7333,26.88,72,24,4.59,AU,1712020555
302,valle de la pascua,9.2155,-66.0073,26.01,73,20,5.08,VE,1712020555
303,keren,15.7778,38.4581,23.12,50,100,0.31,ER,1712020556
304,san rafael del sur,11.8485,-86.4384,28.57,52,0,1.32,NI,1712020556
305,tinghir,31.5157,-5.5343,15.52,32,0,2.45,MA,1712020556
306,kruisfontein,-34.0033,24.7314,16.6,81,22,3.46,ZA,1712020557
307,constantia,44.1833,28.65,14.38,65,97,5.04,RO,1712020283
308,hami,42.8,93.45,8.39,55,100,3.97,CN,1712020558
309,lasem,-6.6922,111.4527,27.85,82,88,2.41,ID,1712020558
310,island harbour,50.724,-1.2758,10.12,90,100,3.58,GB,1712020559
311,sao desiderio,-12.3633,-44.9733,24.91,70,100,0.62,BR,1712020559
312,mount isa,-20.7333,139.5,29.87,45,3,2.57,AU,1712020416
313,prado,-17.3411,-39.2208,26.17,79,100,3.33,BR,1712020489
314,salaga,8.5508,-0.5188,29.47,66,100,3.15,GH,1712020560
315,jayapura,-2.5333,140.7,29.66,74,100,1.17,ID,1712020560
316,wad rawah,15.1603,33.1397,26.11,15,6,4.85,SD,1712020560
317,san martin de valdeiglesias,40.3623,-4.3439,6.66,90,100,0.91,ES,1712020561
318,hamilton,39.1834,-84.5333,20.64,85,75,2.06,US,1712020371
319,lensk,60.7253,114.9278,-1.19,91,100,3.68,RU,1712020561
320,volokonovka,50.4827,37.8563,11.86,67,6,3.59,RU,1712020562
321,quellon,-43.1167,-73.6167,9.12,79,100,2.8,CL,1712020562
322,bolobo,-2.1667,16.2333,23.66,84,100,1.41,CD,1712020562
323,kuala tungkal,-0.8167,103.4667,26.09,89,100,2.25,ID,1712020563
324,harper,4.375,-7.7169,27.01,90,75,1.64,LR,1712020563
325,suva,-18.1416,178.4415,30.71,70,75,5.14,FJ,1712020563
326,gondar,12.6,37.4667,17.49,20,96,1.9,ET,1712020564
327,betio village,1.358,172.9211,28.16,78,21,4.89,KI,1712020564
328,juan griego,11.0817,-63.9655,25.92,85,100,4.93,VE,1712020564
329,ardakan,32.31,54.0175,12.19,36,35,4.23,IR,1712020564
330,hun,29.1268,15.9477,22.71,17,0,4.61,LY,1712020565
331,padang,-0.9492,100.3543,26.03,87,100,1.42,ID,1712020565
332,cananeia,-25.0147,-47.9267,24.0,85,97,2.92,BR,1712020565
333,san mariano,7.5,126.0,27.97,64,100,2.41,PH,1712020566
334,ca mau,9.1769,105.15,30.18,63,24,2.62,VN,1712020566
335,huanggang,23.677,116.9996,22.35,91,100,1.72,CN,1712020567
336,khandyga,62.6667,135.6,-12.05,92,100,0.23,RU,1712020567
337,port macquarie,-31.4333,152.9167,28.83,54,1,3.68,AU,1712020372
338,mawu,29.5923,107.3139,17.84,98,100,1.14,CN,1712020568
339,la gi,10.6667,107.7833,28.53,68,54,2.93,VN,1712020568
340,cannonvale,-20.2833,148.7,27.66,72,79,5.76,AU,1712020568
341,keningau,5.3378,116.1602,27.13,81,66,0.91,MY,1712020569
342,carbonear,47.7332,-53.2148,1.75,93,100,3.3,CA,1712020569
343,kone,-21.0595,164.8658,30.19,47,65,1.78,NC,1712020569
344,al jahra',29.3375,47.6581,23.68,25,0,5.53,KW,1712020570
345,magdagachi,53.45,125.8,-1.66,67,39,1.64,RU,1712020570
346,mariental,-24.6333,17.9667,23.29,55,23,2.64,NA,1712020570
347,stanovoye,52.7638,38.3582,9.57,88,22,3.69,RU,1712020571
348,guarapari,-20.6667,-40.4975,26.05,84,55,1.51,BR,1712020431
349,fale old settlement,-9.3852,-171.2468,29.6,73,40,5.02,TK,1712020571
350,areia branca,-4.9561,-37.1369,27.26,81,96,3.66,BR,1712020308
351,minas de marcona,-15.2119,-75.1103,17.89,79,91,4.18,PE,1712020572
352,inari,68.906,27.0288,-19.46,100,50,1.73,FI,1712020572
353,alofi,-19.0595,-169.9187,29.94,74,75,8.23,NU,1712020573
354,klyuchi,52.2667,79.1667,3.03,76,100,3.87,RU,1712020573
355,humaita,-7.5061,-63.0208,23.97,98,100,1.16,BR,1712020573
356,moussoro,13.6408,16.4901,29.07,11,78,4.65,TD,1712020574
357,san martin,-33.081,-68.4681,17.71,47,3,3.86,AR,1712020461
358,plastun,44.7561,136.2939,5.06,40,0,4.69,RU,1712020574
359,nova sintra,14.8667,-24.7167,19.56,78,29,5.32,CV,1712020575
360,babolsar,36.7025,52.6576,12.22,70,6,1.47,IR,1712020575
361,cockburn town,21.4612,-71.1419,24.74,65,0,7.86,TC,1712020322
362,harstad,68.799,16.5293,-6.58,77,10,6.71,NO,1712020576
363,alo,7.4178,6.7371,28.22,75,100,1.09,NG,1712020576
364,neyriz,29.1988,54.3278,11.63,67,49,1.96,IR,1712020576
365,chegdomyn,51.1167,133.0167,-1.91,74,75,1.07,RU,1712020577
366,valka,57.7752,26.0101,10.73,93,100,2.09,LV,1712020577
367,lata,40.1629,-8.3327,11.15,94,100,2.23,PT,1712020578
368,irymple,-34.25,142.1667,18.94,74,0,0.89,AU,1712020578
369,cedro,-6.6067,-39.0622,24.04,91,100,0.79,BR,1712020578
370,bereznik,62.8551,42.7072,3.4,100,100,1.59,RU,1712020578
371,pokaran,26.9167,71.9167,23.65,20,98,2.38,IN,1712020579
372,shira,54.4911,89.9531,0.81,74,100,2.27,RU,1712020579
373,hirara,24.8,125.2833,26.15,94,75,6.69,JP,1712020579
374,tindouf,27.6711,-8.1474,17.02,53,0,5.13,DZ,1712020580
375,kargasok,59.0556,80.8572,-1.13,71,100,5.81,RU,1712020580
376,tsiombe,-25.3,45.4833,22.0,78,3,7.73,MG,1712020581
377,hadithah,34.1397,42.3781,21.48,40,71,3.03,IQ,1712020581
378,st. john's,47.5649,-52.7093,0.99,96,100,3.09,CA,1712020517
379,luderitz,-26.6481,15.1594,16.05,70,0,7.56,NA,1712020582
380,dzhangala,49.2167,50.3333,10.87,51,100,3.53,KZ,1712020582
381,morehead city,34.7229,-76.726,19.45,89,0,7.2,US,1712020583
382,khovd,48.0056,91.6419,2.05,42,12,0.76,MN,1712020583
383,mariehamn,60.0973,19.9348,0.46,93,100,6.69,AX,1712020583
384,noumea,-22.2763,166.4572,30.99,99,100,5.15,NC,1712020187
385,san pedro,14.35,121.0167,31.86,70,20,5.66,PH,1712020375
386,nizao,18.25,-70.2,25.82,65,0,8.31,DO,1712020584
387,nishinoomote,30.7333,131.0,20.69,71,100,5.31,JP,1712020584
388,luanda,-8.8368,13.2343,26.48,89,100,3.25,AO,1712020540
389,hasaki,35.7333,140.8333,17.94,54,0,2.17,JP,1712020585
390,larkird,35.4894,66.6641,6.16,83,63,1.23,AF,1712020585
391,gaspe,48.8334,-64.4819,-3.24,90,100,3.14,CA,1712020585
392,tawau,4.2498,117.8871,26.81,84,11,0.15,MY,1712020586
393,pujehun,7.3581,-11.7208,25.93,91,46,0.84,SL,1712020586
394,altai,46.3722,96.2583,-0.86,39,100,1.29,MN,1712020586
395,dauphin,51.1494,-100.0502,2.24,90,100,6.36,CA,1712020587
396,barpeta,26.3167,91.0,22.78,66,0,3.11,IN,1712020587
397,palmer,42.1584,-72.3287,9.72,72,20,0.0,US,1712020322
398,olonkinbyen,70.9221,-8.7187,-5.23,61,100,5.76,SJ,1712020588
399,san luis de la loma,17.2706,-100.8939,25.56,78,10,2.79,MX,1712020588
400,usinsk,65.9939,57.5281,-7.18,90,100,5.81,RU,1712020588
401,edenkoben,49.2839,8.1271,8.52,78,19,3.76,DE,1712020589
402,shirdi,19.7667,74.4833,24.64,27,0,3.29,IN,1712020589
403,deir ez-zor,35.3359,40.1408,21.2,33,8,3.45,SY,1712020589
404,hadibu,12.65,54.0333,26.15,78,100,3.17,YE,1712020590
405,newman,37.3138,-121.0208,21.27,48,1,3.13,US,1712020590
406,talavera,15.6167,120.9333,29.27,49,6,3.75,PH,1712020590
407,afonso claudio,-20.0742,-41.1239,21.96,96,80,1.23,BR,1712020591
408,kenai,60.5544,-151.2583,3.05,81,75,5.14,US,1712020379
409,ghanzi,-21.5667,21.7833,19.74,75,100,1.9,BW,1712020591
410,ibarreta,-25.2144,-59.8585,27.25,65,44,1.16,AR,1712020591
411,hermanus,-34.4187,19.2345,16.0,86,88,4.95,ZA,1712020592
412,spa,50.4837,5.8667,8.0,84,74,4.42,BE,1712020592
413,mehran,33.1222,46.1646,21.16,31,0,2.3,IR,1712020592
414,quesnel,52.9999,-122.5029,13.18,64,100,2.58,CA,1712020509
415,stephenville,32.2207,-98.2023,18.44,94,75,2.57,US,1712020462
416,banda aceh,5.5577,95.3222,28.18,77,25,0.95,ID,1712020593
417,nemuro,43.3236,145.575,2.16,67,94,6.42,JP,1712020593
418,kimbe,-5.5502,150.1429,27.5,86,100,0.07,PG,1712020594
419,kodiak,57.79,-152.4072,0.73,60,100,6.69,US,1712020594
420,takhatpur,22.15,81.8667,25.58,24,0,1.12,IN,1712020594
421,selfoss,63.9331,-20.9971,-4.26,49,0,10.87,IS,1712020595
422,xichang,27.8964,102.2634,16.36,54,0,0.61,CN,1712020595
423,brisas de zicatela,15.8369,-97.0419,27.29,83,0,3.6,MX,1712020595
424,boende,-0.2167,20.8667,22.46,92,98,0.89,CD,1712020595
425,sinop,41.7711,34.8709,15.65,51,11,4.0,TR,1712020388
426,kyren,51.6828,102.1408,-4.47,93,88,2.24,RU,1712020596
427,tarawa,1.419,172.984,28.18,78,14,4.98,KI,1712020596
428,palikir - national government center,6.9248,158.1611,31.47,70,100,3.6,FM,1712020596
429,nagqu,31.5,92.0,0.42,21,35,6.08,CN,1712020468
430,lodwar,3.1191,35.5973,29.54,51,89,5.1,KE,1712020597
431,pechora,65.1472,57.2244,-6.19,92,100,4.02,RU,1712020597
432,brigantine,39.4101,-74.3646,9.55,93,100,1.54,US,1712020598
433,kolobrzeg,54.1757,15.5834,8.51,87,100,8.37,PL,1712020598
434,parnarama,-5.6817,-43.0933,23.91,96,51,0.89,BR,1712020598
435,alesund,62.4723,6.1549,5.5,82,40,13.89,NO,1712020331
436,weno,7.4515,151.8468,31.97,74,75,3.6,FM,1712020599
437,arteche,12.2645,125.4048,28.21,73,27,5.08,PH,1712020599
438,portland,45.5234,-122.6762,21.41,45,20,1.54,US,1712020350
439,maridi,4.9158,29.4742,20.27,93,100,2.41,SS,1712020600
440,haiku-pauwela,20.9219,-156.3051,26.01,73,40,11.32,US,1712020600
441,siwa oasis,29.2041,25.5195,20.78,33,0,2.22,EG,1712020576
442,oakdale,44.963,-92.9649,5.8,70,100,3.6,US,1712020427
443,shepley,53.5833,-1.7114,6.01,96,94,0.79,GB,1712020602
444,igarka,67.4667,86.5833,-11.99,94,100,8.35,RU,1712020602
445,taroa,8.7058,171.2275,27.49,73,100,8.22,MH,1712020602
446,carnarvon,-24.8667,113.6333,30.38,39,2,8.18,AU,1712020602
447,guerrero negro,27.9769,-114.0611,16.88,61,0,7.07,MX,1712020603
448,sarangani,5.4033,125.4636,27.64,76,80,9.85,PH,1712020603
449,saeby,57.3319,10.5225,7.2,89,100,10.0,DK,1712020603
450,huarmey,-10.0681,-78.1522,22.47,85,96,2.99,PE,1712020356
451,santa maria da vitoria,-13.3947,-44.1886,26.8,66,100,0.74,BR,1712020603
452,sao joao da barra,-21.6403,-41.0511,22.86,86,85,2.08,BR,1712020604
453,ingleside,27.8778,-97.2117,26.0,93,0,5.81,US,1712020320
454,umm kaddadah,13.6017,26.6876,22.28,12,100,4.08,SD,1712020604
455,kalymnos,36.95,26.9833,17.74,82,0,2.06,GR,1712020604
456,sabang,5.8933,95.3214,28.6,75,61,1.38,ID,1712020605
457,shahecheng,36.9383,114.5058,12.56,33,100,8.0,CN,1712020605
458,kisangani,0.5167,25.2,21.49,99,100,1.06,CD,1712020361
459,kasama,-10.2129,31.1808,17.15,98,100,1.83,ZM,1712020606
460,paita,-5.0892,-81.1144,22.25,80,100,5.42,PE,1712020606
461,polyarnyye zori,67.3661,32.4981,-10.57,87,57,3.4,RU,1712020606
462,andop,7.8611,125.7539,28.43,64,100,3.27,PH,1712020606
463,afua,-0.1567,-50.3867,25.12,94,100,2.02,BR,1712020607
464,clarksburg,39.2807,-80.3445,17.81,84,20,3.09,US,1712020607
465,koryazhma,61.3143,47.1691,6.62,96,100,4.69,RU,1712020607
466,oum hadjer,13.2954,19.6966,28.88,10,99,5.06,TD,1712020607
467,manicore,-5.8092,-61.3003,24.31,98,100,1.36,BR,1712020608
468,badiyah,22.45,58.8,23.71,48,100,0.97,OM,1712020608
469,kuanda,56.3161,116.0806,-5.68,91,100,1.23,RU,1712020608
470,la'ie,21.6477,-157.9253,27.98,79,34,3.58,US,1712020608
471,holualoa,19.6228,-155.9522,24.91,86,75,4.12,US,1712020609
472,havre,49.5833,0.3333,8.87,81,0,8.23,FR,1712020609
473,zhezqazghan,47.7833,67.7667,-0.68,86,0,3.0,KZ,1712020609
474,serhetabat,35.2799,62.3438,8.13,86,98,3.47,TM,1712020609
475,nurmes,63.5421,29.1397,-4.02,88,92,4.48,FI,1712020610
476,acarau,-2.8856,-40.12,26.15,84,99,2.32,BR,1712020610
477,susuman,62.7833,148.1667,-11.12,68,12,1.79,RU,1712020610
478,tosontsengel,48.7567,98.2839,-8.75,86,8,0.54,MN,1712020611
479,domna,51.8971,113.1573,-0.91,43,38,3.0,RU,1712020611
480,kalabo,-14.97,22.6814,19.3,95,100,0.62,ZM,1712020611
481,rockland,41.1668,-74.0496,11.03,83,100,1.44,US,1712020612
482,behompy,-23.2496,43.8557,24.93,65,100,5.12,MG,1712020612
483,neiafu,-18.65,-173.9833,27.7,82,38,8.98,TO,1712020613
484,pacific grove,36.6177,-121.9166,19.84,70,0,3.09,US,1712020605
485,yelizovo,53.1873,158.3805,3.08,48,0,6.0,RU,1712020613
486,port-cartier,50.0334,-66.8654,0.97,83,98,3.81,CA,1712020614
487,sorochinsk,52.4338,53.1583,2.02,100,100,1.86,RU,1712020614
488,le port,-20.9373,55.2919,25.0,86,100,2.79,RE,1712020614
489,ulsteinvik,62.3432,5.8487,5.5,83,79,6.26,NO,1712020615
490,cozumel,20.5083,-86.9458,27.04,83,20,4.12,MX,1712020367
491,chekmagush,55.1319,54.6556,1.56,97,100,4.24,RU,1712020615
492,palopo,-2.9996,120.1921,27.77,80,96,0.61,ID,1712020615
493,kodinsk,58.6881,99.1844,-9.76,92,69,1.03,RU,1712020615
494,plouzane,48.3833,-4.6167,11.03,80,100,10.29,FR,1712020616
495,tanout,14.9709,8.8879,28.63,13,100,3.77,NE,1712020616
496,yamada,39.4667,141.95,8.87,44,6,4.2,JP,1712020617
497,cold lake,54.4502,-110.2017,3.33,58,9,2.35,CA,1712020617
498,labytnangi,66.6572,66.4183,-19.35,96,100,1.16,RU,1712020618
499,haimen,23.1935,116.6142,23.07,90,81,2.88,CN,1712020618
500,calama,-22.4667,-68.9333,15.54,35,0,1.66,CL,1712020448
501,saint-georges,12.0564,-61.7485,26.62,77,20,6.18,GD,1712020618
502,zabaykal'sk,49.6333,117.3167,-2.61,65,2,9.21,RU,1712020619
503,kanuma,36.55,139.7333,13.36,35,2,2.04,JP,1712020619
504,mount pearl,47.5166,-52.7813,0.53,96,100,3.09,CA,1712020619
505,ust-tsilma,65.441,52.1498,-2.99,96,100,5.81,RU,1712020620
506,vilyuchinsk,52.9306,158.4028,3.15,84,100,4.22,RU,1712020620
507,marsh harbour,26.5412,-77.0636,22.78,68,83,4.89,BS,1712020510
508,sao joao do piaui,-8.3581,-42.2467,23.75,89,100,1.22,BR,1712020620
509,puerto deseado,-47.7503,-65.8938,12.15,65,51,7.82,AR,1712020621
510,bonthe,7.5264,-12.505,25.89,90,81,1.85,SL,1712020621
511,vernon,50.2581,-119.2691,17.91,43,100,0.45,CA,1712020621
512,simanggang,1.2472,111.4528,24.79,97,100,0.81,MY,1712020621
513,broken hill,-31.95,141.4333,18.99,43,0,7.91,AU,1712020499
514,porto torres,40.835,8.3972,13.1,81,26,5.41,IT,1712020622
515,trstenik,43.6169,21.0025,21.23,51,48,2.32,RS,1712020622
516,kotido,2.9806,34.1331,22.46,67,69,2.01,UG,1712020622
517,codrington,-38.2667,141.9667,15.47,83,100,9.36,AU,1712020623
518,dawesville,30.9224,-84.0091,21.23,83,0,4.12,US,1712020623
519,cole harbour,44.6724,-63.4751,2.74,69,11,2.44,CA,1712020623
520,flin flon,54.7682,-101.865,1.15,94,100,4.9,CA,1712020624
521,mahina,-17.5065,-149.489,31.87,58,20,0.51,PF,1712020624
522,shiguai,40.7058,110.2856,11.08,30,59,5.2,CN,1712020624
523,minden,52.2833,8.9167,9.94,87,75,4.63,DE,1712020624
524,kingston,17.997,-76.7936,24.56,90,28,0.96,JM,1712020539
525,lompoc,34.6391,-120.4579,19.88,68,0,5.66,US,1712020625
526,chos malal,-37.3781,-70.2709,13.71,14,100,0.81,AR,1712020625
527,kristiansund,63.1115,7.732,3.03,87,100,8.75,NO,1712020625
528,gasa,31.5,34.4667,20.65,55,0,3.28,PS,1712020374
529,taoudenni,22.6783,-3.9836,30.03,14,0,4.52,ML,1712020626
530,missoula,47.0166,-113.8009,11.22,82,57,1.94,US,1712020502
531,dalandzadgad,43.5708,104.425,6.21,41,100,4.49,MN,1712020626
532,buka,40.8108,69.1986,9.78,55,97,1.33,UZ,1712020626
533,birao,10.2849,22.7882,26.19,29,100,1.72,CF,1712020627
534,laguna,38.421,-121.4238,23.16,33,0,2.57,US,1712020627
535,ternate,0.8,127.4,28.87,71,76,2.65,ID,1712020627
536,arraial do cabo,-22.9661,-42.0278,23.42,83,21,0.66,BR,1712020628
537,bilmak,47.3624,36.6511,10.8,68,68,3.3,UA,1712020628
538,rundu,-17.9333,19.7667,18.85,88,38,3.02,NA,1712020629
539,jumla,29.2747,82.1838,8.6,39,27,2.17,NP,1712020503
540,san julian,21.0167,-102.1667,22.66,21,100,5.45,MX,1712020629
541,esmeraldas,-19.7625,-44.3139,23.48,84,32,1.3,BR,1712020629
542,lepsy,46.235,78.9456,3.92,58,6,2.03,KZ,1712020630
543,christchurch,-43.5333,172.6333,17.45,62,100,1.03,NZ,1712020161
544,madalena,41.2162,-8.3345,12.32,80,99,2.35,PT,1712020630
545,vilyuysk,63.7553,121.6247,-10.4,94,100,1.43,RU,1712020630
546,berezovo,63.9381,65.0419,-17.84,97,100,1.67,RU,1712020631
547,novovarshavka,54.1721,74.6946,1.01,98,100,4.64,RU,1712020631
548,eastham,41.8301,-69.9739,5.53,86,0,0.0,US,1712020337
549,aleksandrov gay,50.147,48.5704,9.35,67,100,4.15,RU,1712020632
550,callaway,30.153,-85.5699,21.12,90,100,3.13,US,1712020632
551,bukama,-9.2,25.85,20.24,99,100,1.21,CD,1712020633
552,evergreen,39.6333,-105.3172,1.97,89,100,2.17,US,1712020633
553,salinopolis,-0.6136,-47.3561,26.72,88,45,2.88,BR,1712020634
554,rampur hat,24.1667,87.7833,26.95,21,0,2.65,IN,1712020634
555,whakatane,-37.9585,176.9854,22.71,75,97,1.34,NZ,1712020634
556,aylmer,42.7668,-80.983,8.84,60,100,6.02,CA,1712020635
557,taulaga,-11.0553,-171.0883,29.81,72,8,6.24,AS,1712020635
558,grou,53.1,5.8333,9.45,84,75,3.09,NL,1712020636
559,mirnyy,62.5353,113.9611,-3.0,93,94,3.6,RU,1712020637
560,tianpeng,30.9866,103.9393,19.35,78,100,2.43,CN,1712020637
561,robbah,33.2797,6.9098,20.07,27,0,6.01,DZ,1712020638
562,castillos,-34.1667,-53.8333,15.06,79,100,4.24,UY,1712020638
563,carletonville,-26.3609,27.3977,14.48,67,52,1.39,ZA,1712020638
564,rawah,34.4816,41.9093,21.42,41,36,2.55,IQ,1712020638
565,rambervillers,48.3424,6.6358,7.53,94,17,5.59,FR,1712020639
566,talcahuano,-36.7167,-73.1167,12.48,79,49,1.81,CL,1712020579
567,kavieng,-2.5744,150.7967,29.06,74,97,6.86,PG,1712020639
568,nichinan,31.6,131.3667,20.23,71,100,1.69,JP,1712020639
569,laminusa,5.5549,120.9136,27.72,76,27,2.76,PH,1712020640
570,farafangana,-22.8167,47.8333,23.58,89,100,5.35,MG,1712020640
571,agat village,13.3886,144.6585,32.52,72,75,9.26,GU,1712020640
572,kerikeri,-35.2268,173.9474,20.93,51,28,3.0,NZ,1712020640
573,sandakan,5.8402,118.1179,27.98,77,1,0.8,MY,1712020641
574,yemetsk,63.4721,41.7941,2.69,100,100,1.61,RU,1712020641
575,brookhaven,31.5791,-90.4407,23.47,78,100,4.66,US,1712020641
576,gusinoozyorsk,51.2833,106.5,-2.09,62,23,7.67,RU,1712020641
577,williamson,30.6502,-97.6003,25.75,82,75,4.92,US,1712020642
578,bakanas,44.8081,76.2772,5.63,57,3,3.01,KZ,1712020642
579,bandundu,-3.3167,17.3667,22.17,90,86,1.13,CD,1712020642
580,cottesloe,-32.0,115.7667,19.46,57,0,6.69,AU,1712020643
581,nueva gerona,21.8833,-82.8,25.41,74,2,4.2,CU,1712020643
582,saint-pierre,-21.3393,55.4781,24.82,83,75,12.35,RE,1712020643
583,kirkland lake,48.1446,-80.0377,-2.43,75,100,2.07,CA,1712020643
584,badvel,14.75,79.05,25.03,85,0,0.14,IN,1712020644
585,escarcega,18.6089,-90.7454,30.57,38,5,1.45,MX,1712020644
586,baoqing,46.3317,132.2111,3.65,48,7,4.77,CN,1712020644
587,ocean city,39.2776,-74.5746,9.54,88,100,0.45,US,1712020645
588,porto novo,6.4965,2.6036,27.15,89,100,2.37,BJ,1712020645
589,freetown,8.484,-13.2299,25.7,87,0,2.21,SL,1712020645
590,kambarka,56.2694,54.2062,2.03,98,100,4.61,RU,1712020646
